[{"ID":"0x000e78983E0e9EcFE38aA59fb22A25fde8BFA7EE","CPU":9000,"GPU":4,"RAM":16773480448,"Online":false,"ConnectedSince":0,"CountryCode":"US","Region":"MO","City":"Springfield","Latitude":37.2003,"Longitude":-93.2973},{"ID":"0x00166d1a6dAfa35EA3b2FE8E9E4124F7Ece85E8D","CPU":6000,"GPU":1,"RAM":53841903616,"Online":true,"ConnectedSince":1730224820664,"CountryCode":"NL","Region":"NH","City":"Amsterdam","Latitude":52.3962,"Longitude":4.85338},{"ID":"0x006DF15E7CbB7DAdeF8E56E12a919452B9c3A774","CPU":1000,"GPU":1,"RAM":1024,"Online":false,"ConnectedSince":0,"CountryCode":"US","Region":"MO","City":"St Louis","Latitude":38.4539,"Longitude":-90.328},{"ID":"0x00747CC5C12ABe9d22b00dffE5d9f4a11f88F255","CPU":2000,"GPU":1,"RAM":2048,"Online":false,"ConnectedSince":0,"CountryCode":"CN","Region":"BJ","City":"Beijing","Latitude":39.9042,"Longitude":116.407},{"ID":"0x00751b296adEAEe33A7DE4aB72ff62ddA6249751","CPU":102000,"GPU":1,"RAM":432410646937,"Online":true,"ConnectedSince":1730234907169,"CountryCode":"NL","Region":"NH","City":"Amsterdam","Latitude":52.3962,"Longitude":4.85338},{"ID":"0x00759E9f3eD364c5cbEe0B02A670B24Fac280be9","CPU":1000,"GPU":1,"RAM":1024,"Online":false,"ConnectedSince":0,"CountryCode":"FI","Region":"19","City":"Turku","Latitude":60.4409,"Longitude":22.3021},{"ID":"0x00acec1928b94C7B405EC9D3466c9D4438014F51","CPU":0,"GPU":0,"RAM":0,"Online":false,"ConnectedSince":0,"CountryCode":"NL","Region":"NH","City":"Amsterdam","Latitude":52.3962,"Longitude":4.85338},{"ID":"0x00c07EE033A06f55cb3A376268e1A3b572Bcf307","CPU":4000,"GPU":1,"RAM":4096,"Online":false,"ConnectedSince":0,"CountryCode":"CN","Region":"HN","City":"Langli","Latitude":28.1822,"Longitude":113.1051},{"ID":"0x00Cac210e42eCE53400470f39551Fd572B14D501","CPU":51000,"GPU":1,"RAM":323463413760,"Online":true,"ConnectedSince":1730206601937,"CountryCode":"NL","Region":"NH","City":"Amsterdam","Latitude":52.3961,"Longitude":4.85469},{"ID":"0x00E80FFDdc974223d2E67F7F4DAA173f3019F8F8","CPU":9000,"GPU":1,"RAM":13411228057,"Online":false,"ConnectedSince":0,"CountryCode":"US","Region":"MO","City":"Springfield","Latitude":37.1661,"Longitude":-93.2458},{"ID":"0x00ed08947C8be905f6787Ca14ffc917A34eceA37","CPU":1000,"GPU":1,"RAM":33646637875,"Online":true,"ConnectedSince":1730228643896,"CountryCode":"GB","Region":"9","City":"Vienna","Latitude":48.2049,"Longitude":16.3662},{"ID":"0x00F552636A6d25a04d4509f72B123da2995D3A70","CPU":1000,"GPU":0,"RAM":3285018214,"Online":true,"ConnectedSince":1730216832468,"CountryCode":"DE","Region":"","City":"","Latitude":0,"Longitude":0},{"ID":"0x00Fe528ba550716ad8b9A181a5e07Da62ADe17cF","CPU":25000,"GPU":1,"RAM":26169982976,"Online":false,"ConnectedSince":0,"CountryCode":"FR","Region":"HDF","City":"Chierry","Latitude":49.0401,"Longitude":3.42752},{"ID":"0x011D24b8540f8ecfFcE5790cFa3894e9095C3979","CPU":1000,"GPU":1,"RAM":33646637875,"Online":true,"ConnectedSince":1730220365011,"CountryCode":"IS","Region":"1","City":"Hafnarfjordur","Latitude":64.0677,"Longitude":-21.9453},{"ID":"0x011dDd11f39E17e7e84E2d6B92a86e1E2641D4b2","CPU":6000,"GPU":1,"RAM":13412070195,"Online":false,"ConnectedSince":0,"CountryCode":"US","Region":"MO","City":"Springfield","Latitude":37.2003,"Longitude":-93.2973},{"ID":"0x0127e260386621f7da977D534abB50512951FED5","CPU":16000,"GPU":1,"RAM":107958635724,"Online":true,"ConnectedSince":1730206632712,"CountryCode":"NL","Region":"NH","City":"Amsterdam","Latitude":52.3961,"Longitude":4.85469},{"ID":"0x015050519a0de4f55c9dedf65FEa29427bDb2144","CPU":6000,"GPU":1,"RAM":13412070195,"Online":false,"ConnectedSince":0,"CountryCode":"US","Region":"MO","City":"Springfield","Latitude":37.2003,"Longitude":-93.2973},{"ID":"0x0193DB2f9cFa15eA5e3C4B7e71fee9a32162b329","CPU":1000,"GPU":1,"RAM":1024,"Online":false,"ConnectedSince":0,"CountryCode":"CN","Region":"JX","City":"Nanchang","Latitude":28.682,"Longitude":115.858},{"ID":"0x01b3FE4e9C658C10dDBfe42e226D327cc344F952","CPU":1000,"GPU":0,"RAM":1024,"Online":false,"ConnectedSince":0,"CountryCode":"US","Region":"MO","City":"St Louis","Latitude":38.4539,"Longitude":-90.328},{"ID":"0x01C395867430bbc5c2dB2ac9F1d910367769F1A4","CPU":1000,"GPU":1,"RAM":33646637875,"Online":true,"ConnectedSince":1730226085789,"CountryCode":"US","Region":"NH","City":"Amsterdam","Latitude":52.3962,"Longitude":4.85338},{"ID":"0x01EcA44c871fE459AAf8Db1F67eC87330B810ee1","CPU":0,"GPU":0,"RAM":0,"Online":false,"ConnectedSince":0,"CountryCode":"RO","Region":"CJ","City":"Cluj-Napoca","Latitude":46.7758,"Longitude":23.601},{"ID":"0x02004c6c90Edc62Deb00eb0aE0Ab4D3B85823010","CPU":6000,"GPU":1,"RAM":13412066918,"Online":false,"ConnectedSince":0,"CountryCode":"US","Region":"MO","City":"Springfield","Latitude":37.2003,"Longitude":-93.2973},{"ID":"0x023862Ba1A33C8B11FCf54534596901ed88EDA9b","CPU":16000,"GPU":1,"RAM":107958697984,"Online":true,"ConnectedSince":1730217062633,"CountryCode":"NL","Region":"NH","City":"Amsterdam","Latitude":52.3962,"Longitude":4.85338},{"ID":"0x02450c865D91Ad93364534444A63D720d60A1760","CPU":11000,"GPU":1,"RAM":18464109363,"Online":true,"ConnectedSince":1730228595081,"CountryCode":"US","Region":"CA","City":"Los Angeles","Latitude":34.0549,"Longitude":-118.243},{"ID":"0x02595Bf4034ff257F3c270157707C44EEFDdE511","CPU":0,"GPU":0,"RAM":0,"Online":false,"ConnectedSince":0,"CountryCode":"US","Region":"CA","City":"Los Angeles","Latitude":34.0549,"Longitude":-118.243},{"ID":"0x02AC731c7606a9F94Df3117784BCB3b37f1A2663","CPU":4000,"GPU":1,"RAM":13410484804,"Online":false,"ConnectedSince":0,"CountryCode":"RO","Region":"B","City":"Bucharest","Latitude":44.4152,"Longitude":26.166},{"ID":"0x02b96F327D72386070f688B8F3Efe77Fc9DE3c54","CPU":2000,"GPU":1,"RAM":2048,"Online":false,"ConnectedSince":0,"CountryCode":"CN","Region":"BJ","City":"Beijing","Latitude":39.9042,"Longitude":116.407},{"ID":"0x02De21e955593a68c0974e93E8d22B1c66AB3D0e","CPU":22000,"GPU":1,"RAM":53840422502,"Online":true,"ConnectedSince":1730217782440,"CountryCode":"NL","Region":"NH","City":"Amsterdam","Latitude":52.3962,"Longitude":4.85338},{"ID":"0x02EAfdA14EaD355330c418776539cbE03F3f16E7","CPU":102000,"GPU":1,"RAM":432410630553,"Online":false,"ConnectedSince":0,"CountryCode":"AT","Region":"9","City":"Vienna","Latitude":48.2049,"Longitude":16.3662},{"ID":"0x031a6E538ba4044506cFEdfE315b6d0F0cdD21CB","CPU":0,"GPU":0,"RAM":0,"Online":true,"ConnectedSince":1730234743429,"CountryCode":"US","Region":"LA","City":"Monroe","Latitude":32.5891,"Longitude":-92.0664},{"ID":"0x0333D6fd1deDb66c5F5441D6E57f1Da2a38a922E","CPU":9000,"GPU":1,"RAM":13411231334,"Online":true,"ConnectedSince":1730232153633,"CountryCode":"US","Region":"","City":"","Latitude":0,"Longitude":0},{"ID":"0x0342beb03741E9D850AdCcA8C24302B8abf9c60C","CPU":1000,"GPU":0,"RAM":1024,"Online":true,"ConnectedSince":1730234899506,"CountryCode":"US","Region":"MO","City":"St Louis","Latitude":38.4539,"Longitude":-90.328},{"ID":"0x03644968285912f8BbCaF5256417FFeDFA479A35","CPU":2000,"GPU":1,"RAM":2048,"Online":false,"ConnectedSince":0,"CountryCode":"CN","Region":"BJ","City":"Beijing","Latitude":39.9042,"Longitude":116.407},{"ID":"0x0382E30Ce49E261FB0C05f6a6aa4E3F126D9AdbF","CPU":16000,"GPU":1,"RAM":107959969382,"Online":true,"ConnectedSince":1730230532279,"CountryCode":"NL","Region":"NH","City":"Amsterdam","Latitude":52.3962,"Longitude":4.85338},{"ID":"0x0395b3dA510424DDcd94D1F0383f159b3725ACd8","CPU":6000,"GPU":1,"RAM":53888935526,"Online":true,"ConnectedSince":1730208522548,"CountryCode":"IS","Region":"1","City":"Reykjavik","Latitude":64.1336,"Longitude":-21.8934},{"ID":"0x03c3eDD0AC0c4aA0eC5b43842eb0DFf2E3aCe406","CPU":6000,"GPU":1,"RAM":6592603750,"Online":true,"ConnectedSince":1730228508381,"CountryCode":"CA","Region":"BC","City":"Surrey","Latitude":49.0823,"Longitude":-122.771},{"ID":"0x03DB8C10b2214d1708413cE4a803aE82380db9e6","CPU":3000,"GPU":1,"RAM":13412909056,"Online":true,"ConnectedSince":1730233725379,"CountryCode":"US","Region":"","City":"","Latitude":0,"Longitude":0},{"ID":"0x03f45507286B29316c90a2B7634D18B56c508245","CPU":102000,"GPU":1,"RAM":432410633830,"Online":true,"ConnectedSince":1730214770192,"CountryCode":"AT","Region":"BC","City":"Vancouver","Latitude":49.282,"Longitude":-123.1103},{"ID":"0x03F6ab6763efA06A6D07A226d0a4dEf0D9348208","CPU":1000,"GPU":0,"RAM":1024,"Online":false,"ConnectedSince":0,"CountryCode":"US","Region":"MO","City":"St Louis","Latitude":38.4539,"Longitude":-90.328},{"ID":"0x0428575aE1773d5F65Fa9FCADAeb5F376737fC5f","CPU":1000,"GPU":1,"RAM":1024,"Online":false,"ConnectedSince":0,"CountryCode":"US","Region":"TX","City":"Austin","Latitude":30.2661,"Longitude":-97.7136},{"ID":"0x04386028f90904209df322E85fB0E8a8743514DB","CPU":1000,"GPU":1,"RAM":33646637875,"Online":true,"ConnectedSince":1730224321656,"CountryCode":"IS","Region":"1","City":"Hafnarfjordur","Latitude":64.0677,"Longitude":-21.9453},{"ID":"0x045b496c5B7bf3f6491ac71BfB4f1ceC5c93CC48","CPU":6000,"GPU":1,"RAM":33645379584,"Online":true,"ConnectedSince":1730233166998,"CountryCode":"EE","Region":"","City":"","Latitude":0,"Longitude":0},{"ID":"0x04a93E402545D06F19B55854388cEc174FD2CA7a","CPU":6000,"GPU":1,"RAM":13412070195,"Online":false,"ConnectedSince":0,"CountryCode":"CA","Region":"MB","City":"Winnipeg","Latitude":49.9716,"Longitude":-97.1515},{"ID":"0x04ac3C0f6f0ABE894a5375cb9142CE0d0C4B6765","CPU":11000,"GPU":1,"RAM":18464109363,"Online":true,"ConnectedSince":1730215788033,"CountryCode":"US","Region":"CA","City":"Los Angeles","Latitude":34.0549,"Longitude":-118.243},{"ID":"0x04D8e423Becac614e511F74840F9Aed4C46F8720","CPU":25000,"GPU":1,"RAM":107383901388,"Online":true,"ConnectedSince":1730171228374,"CountryCode":"RO","Region":"CJ","City":"Cluj-Napoca","Latitude":46.7758,"Longitude":23.601},{"ID":"0x0526194d26A62967952D5475D28286d20F56E817","CPU":3000,"GPU":1,"RAM":13412912332,"Online":true,"ConnectedSince":1730181064527,"CountryCode":"CA","Region":"MB","City":"Winnipeg","Latitude":49.9716,"Longitude":-97.1515},{"ID":"0x054615a4f11058741419d43B7f311e9F255C51F5","CPU":1000,"GPU":0,"RAM":1024,"Online":false,"ConnectedSince":0,"CountryCode":"US","Region":"","City":"","Latitude":0,"Longitude":0},{"ID":"0x05558ed2E28BB6f20c7449214f5A372ee916B914","CPU":1000,"GPU":0,"RAM":1024,"Online":false,"ConnectedSince":0,"CountryCode":"US","Region":"","City":"","Latitude":0,"Longitude":0},{"ID":"0x0556f6e341eE1cBeA749Ac9100815d576effAD4C","CPU":1000,"GPU":1,"RAM":1024,"Online":false,"ConnectedSince":0,"CountryCode":"CN","Region":"HA","City":"Zhengzhou","Latitude":34.7657,"Longitude":113.753},{"ID":"0x05654e4623e27E25D21E20b158CCE2DA37FfaD64","CPU":0,"GPU":0,"RAM":0,"Online":true,"ConnectedSince":1730233885214,"CountryCode":"US","Region":"LA","City":"Monroe","Latitude":32.5891,"Longitude":-92.0664},{"ID":"0x05E317882939498268194181C01bc4F94bB52dAd","CPU":1000,"GPU":1,"RAM":33646637875,"Online":true,"ConnectedSince":1730216096826,"CountryCode":"IS","Region":"1","City":"Hafnarfjordur","Latitude":64.0677,"Longitude":-21.9453},{"ID":"0x05ECAbD821D34c1Afd06d9a1e7E85fd1321318Ac","CPU":1000,"GPU":1,"RAM":1024,"Online":true,"ConnectedSince":1722909124837,"CountryCode":"HK","Region":"HCW","City":"Admiralty","Latitude":22.2792,"Longitude":114.164},{"ID":"0x05f580dF69Fd72FE3B586E60304066d760c22b1c","CPU":1000,"GPU":1,"RAM":1024,"Online":false,"ConnectedSince":0,"CountryCode":"RU","Region":"ROS","City":"Rostov-on-Don","Latitude":47.2363,"Longitude":39.7233},{"ID":"0x060953B772d21B4358E48eE5b500Bb25B053FD2a","CPU":2000,"GPU":1,"RAM":2048,"Online":false,"ConnectedSince":0,"CountryCode":"CN","Region":"BJ","City":"Beijing","Latitude":39.9042,"Longitude":116.407},{"ID":"0x0615bf31D44f9CA9897A5D36c2ac7D3758EC95E1","CPU":6000,"GPU":1,"RAM":53888925696,"Online":true,"ConnectedSince":1730196576169,"CountryCode":"IS","Region":"1","City":"Reykjavik","Latitude":64.1336,"Longitude":-21.8934},{"ID":"0x062be07C983A7A8BBA2D8eD22785Da820036240a","CPU":64000,"GPU":1,"RAM":26795632230,"Online":true,"ConnectedSince":1730017559899,"CountryCode":"CN","Region":"BJ","City":"Beijing","Latitude":39.9042,"Longitude":116.407},{"ID":"0x065f51351f5564446b8925D9B762DA41373d26BC","CPU":6000,"GPU":1,"RAM":53888935526,"Online":true,"ConnectedSince":1730206619338,"CountryCode":"IS","Region":"1","City":"Reykjavik","Latitude":64.1336,"Longitude":-21.8934},{"ID":"0x066152c5B99C126fa221AD8561aE874A4A810845","CPU":1000,"GPU":1,"RAM":1024,"Online":false,"ConnectedSince":0,"CountryCode":"US","Region":"MO","City":"St Louis","Latitude":38.4539,"Longitude":-90.328},{"ID":"0x0699212b34a15Eb351a4c2A7c69B6733434F072d","CPU":16000,"GPU":1,"RAM":107958697984,"Online":true,"ConnectedSince":1730210784947,"CountryCode":"NL","Region":"NH","City":"Amsterdam","Latitude":52.3962,"Longitude":4.85338},{"ID":"0x06a5d386507B28b1dA7286A9b50119aC3AFa699b","CPU":1000,"GPU":1,"RAM":33646637875,"Online":true,"ConnectedSince":1730221250102,"CountryCode":"CA","Region":"9","City":"Vienna","Latitude":48.2049,"Longitude":16.3662},{"ID":"0x06b0ba93664F654193f5F2908C87F2E2FC51430a","CPU":1000,"GPU":0,"RAM":1024,"Online":false,"ConnectedSince":0,"CountryCode":"US","Region":"MO","City":"St Louis","Latitude":38.4539,"Longitude":-90.328},{"ID":"0x06B0C4b4E02a3247C5866749cd59AfBEaFC7307E","CPU":9000,"GPU":0,"RAM":26894860288,"Online":false,"ConnectedSince":0,"CountryCode":"RO","Region":"PH","City":"Ploieşti","Latitude":44.9467,"Longitude":26.0135},{"ID":"0x0703391bBE3602e848Ae83F8efb4a895dF397f5A","CPU":16000,"GPU":1,"RAM":53839196979,"Online":true,"ConnectedSince":1730226800047,"CountryCode":"NL","Region":"NH","City":"Amsterdam","Latitude":52.3962,"Longitude":4.85338},{"ID":"0x07033B69f18c8abb1E2Ef6aB695fDb8034F2f8f1","CPU":25000,"GPU":1,"RAM":432435485081,"Online":true,"ConnectedSince":1730193169346,"CountryCode":"NL","Region":"NH","City":"Amsterdam","Latitude":52.3962,"Longitude":4.85338},{"ID":"0x070bE4A6fFd8c54e25e0dDb1cE43f279DE30B969","CPU":19000,"GPU":4,"RAM":3276954009,"Online":true,"ConnectedSince":1730186552542,"CountryCode":"UA","Region":"","City":"","Latitude":0,"Longitude":0},{"ID":"0x07314c0399FFeDf32faB4c376D667729A549c600","CPU":16000,"GPU":1,"RAM":53842155929,"Online":false,"ConnectedSince":0,"CountryCode":"NL","Region":"","City":"","Latitude":0,"Longitude":0},{"ID":"0x074D84CCCA80BE38d8f2672583C8C9384C1B1F58","CPU":16000,"GPU":1,"RAM":107958697984,"Online":true,"ConnectedSince":1730229554003,"CountryCode":"NL","Region":"NH","City":"Amsterdam","Latitude":52.3962,"Longitude":4.85338},{"ID":"0x077a3b693a76A2EA240aeD9154613c483883c6B9","CPU":1000,"GPU":1,"RAM":33646637875,"Online":true,"ConnectedSince":1730221400564,"CountryCode":"US","Region":"9","City":"Vienna","Latitude":48.2049,"Longitude":16.3662},{"ID":"0x07AD2fc871Ee0C7CA10c2CAAB52b577e83B8180F","CPU":2000,"GPU":1,"RAM":2048,"Online":false,"ConnectedSince":0,"CountryCode":"CN","Region":"BJ","City":"Beijing","Latitude":39.9042,"Longitude":116.407},{"ID":"0x07b8850B221dA847C98e3D988c5e33Cb1432F561","CPU":1000,"GPU":1,"RAM":1024,"Online":false,"ConnectedSince":0,"CountryCode":"CN","Region":"GD","City":"Foshan","Latitude":23.0261,"Longitude":113.1371},{"ID":"0x081Ab4fad69ED6156B1B93DC188680f2C444de95","CPU":1000,"GPU":1,"RAM":1024,"Online":false,"ConnectedSince":0,"CountryCode":"RU","Region":"KRS","City":"Kursk","Latitude":51.7321,"Longitude":36.1996},{"ID":"0x0820b2ebEBb9fE96B2664318dd5Dee857Cfb454B","CPU":9000,"GPU":4,"RAM":16773480448,"Online":false,"ConnectedSince":0,"CountryCode":"US","Region":"MO","City":"Springfield","Latitude":37.2003,"Longitude":-93.2973},{"ID":"0x084698AD821471Bb832dDE2838628C9ba83EF65F","CPU":6000,"GPU":1,"RAM":6592603750,"Online":true,"ConnectedSince":1730228472217,"CountryCode":"CA","Region":"BC","City":"Surrey","Latitude":49.0823,"Longitude":-122.771},{"ID":"0x086BBbEC5B327F3b41ea7bD211f1381ef5719e39","CPU":9000,"GPU":1,"RAM":13411234611,"Online":false,"ConnectedSince":0,"CountryCode":"US","Region":"MO","City":"Springfield","Latitude":37.1661,"Longitude":-93.2458},{"ID":"0x088dcDf0275e8892F71c277Db377Ed005fC55976","CPU":9000,"GPU":1,"RAM":13414236160,"Online":true,"ConnectedSince":1730220017656,"CountryCode":"US","Region":"LA","City":"Monroe","Latitude":32.5891,"Longitude":-92.0664},{"ID":"0x09307BEDDef327055e35c023C7A24eF5C5D95B46","CPU":6000,"GPU":1,"RAM":53883414118,"Online":true,"ConnectedSince":1730186545179,"CountryCode":"IS","Region":"1","City":"Reykjavik","Latitude":64.1336,"Longitude":-21.8934},{"ID":"0x09665Aa50Af26331Ae115101F490ec1FB0Fd2116","CPU":1000,"GPU":0,"RAM":1650714214,"Online":true,"ConnectedSince":1730170457052,"CountryCode":"FI","Region":"18","City":"Helsinki","Latitude":60.1797,"Longitude":24.9344},{"ID":"0x099d92DB949e18406d3AA919f25a84bfb3023127","CPU":9000,"GPU":1,"RAM":13414236160,"Online":false,"ConnectedSince":0,"CountryCode":"CA","Region":"ON","City":"Ottawa","Latitude":45.3316,"Longitude":-75.6718},{"ID":"0x09aE8Ca75d8d14B424637e1ACdd430e1928E581C","CPU":6000,"GPU":1,"RAM":13412066918,"Online":false,"ConnectedSince":0,"CountryCode":"US","Region":"MO","City":"Springfield","Latitude":37.2003,"Longitude":-93.2973},{"ID":"0x09B142875eB3308EbBa37A5658a03C3cdd8Ed9a5","CPU":0,"GPU":0,"RAM":0,"Online":true,"ConnectedSince":1730235074062,"CountryCode":"US","Region":"CA","City":"Los Angeles","Latitude":34.0549,"Longitude":-118.243},{"ID":"0x09c51a2320F26D6edD75C3540B7c429c1E9AfD04","CPU":25000,"GPU":1,"RAM":432435485081,"Online":true,"ConnectedSince":1730193131190,"CountryCode":"NL","Region":"NH","City":"Amsterdam","Latitude":52.3962,"Longitude":4.85338},{"ID":"0x09E69b7F403fFab35246Ca5fc6aDC23deb679037","CPU":1000,"GPU":1,"RAM":1024,"Online":false,"ConnectedSince":0,"CountryCode":"US","Region":"CA","City":"Santa Monica","Latitude":34.0271,"Longitude":-118.5035},{"ID":"0x09f48494471bf1CE32a264dEa4c91fE517Ff0bAc","CPU":0,"GPU":0,"RAM":0,"Online":true,"ConnectedSince":1730220565902,"CountryCode":"US","Region":"","City":"","Latitude":0,"Longitude":0},{"ID":"0x09f8D2f4934de309Cc31EeB4bb6FDc0B9cC88aB0","CPU":19000,"GPU":4,"RAM":53935728230,"Online":false,"ConnectedSince":0,"CountryCode":"US","Region":"CA","City":"Rosamond","Latitude":34.8679,"Longitude":-118.3412},{"ID":"0x09fc41e4a1430Fb324eDe7Cc88a238D2d606976F","CPU":16000,"GPU":1,"RAM":216111208857,"Online":true,"ConnectedSince":1730234523928,"CountryCode":"NL","Region":"NH","City":"Amsterdam","Latitude":52.3962,"Longitude":4.85338},{"ID":"0x0A0A7db0afCbB1C1E453099c3c8a786521B2980a","CPU":6000,"GPU":1,"RAM":13412070195,"Online":false,"ConnectedSince":0,"CountryCode":"CA","Region":"MB","City":"Winnipeg","Latitude":49.9716,"Longitude":-97.1515},{"ID":"0x0A28C05C8f8972b457Ff0F3dbEDAaba9A6168e50","CPU":70000,"GPU":3,"RAM":432722319769,"Online":false,"ConnectedSince":0,"CountryCode":"GB","Region":"ENG","City":"Upper Rissington","Latitude":51.8786,"Longitude":-1.6927},{"ID":"0x0a334e957f074bd20439AD793aeeAfCD5A3468b2","CPU":1000,"GPU":1,"RAM":1024,"Online":false,"ConnectedSince":0,"CountryCode":"FI","Region":"19","City":"Turku","Latitude":60.4409,"Longitude":22.3021},{"ID":"0x0a59ebb68db7d248cd61a3115cB107033BAe6D25","CPU":0,"GPU":0,"RAM":0,"Online":false,"ConnectedSince":0,"CountryCode":"AT","Region":"9","City":"Vienna","Latitude":48.2049,"Longitude":16.3662},{"ID":"0x0A5d08B817CAA88546864224d332E16FD7538a0A","CPU":1000,"GPU":1,"RAM":1024,"Online":false,"ConnectedSince":0,"CountryCode":"US","Region":"CA","City":"Santa Rosa","Latitude":38.4116,"Longitude":-122.7332},{"ID":"0x0A5dCc5471F6B7fFD2d898ec6dfe71BaF1aCeeAC","CPU":9000,"GPU":1,"RAM":13411231334,"Online":true,"ConnectedSince":1730234822831,"CountryCode":"CH","Region":"","City":"","Latitude":0,"Longitude":0},{"ID":"0x0a7b46fB5b335d58C04b60d9D0afc17686510126","CPU":0,"GPU":0,"RAM":0,"Online":false,"ConnectedSince":0,"CountryCode":"US","Region":"WY","City":"Casper","Latitude":42.8569,"Longitude":-106.299},{"ID":"0x0a7dE610156DCe44a5115A6d64f9d7FE454493af","CPU":6000,"GPU":1,"RAM":53883410841,"Online":true,"ConnectedSince":1730186546787,"CountryCode":"IS","Region":"1","City":"Reykjavik","Latitude":64.1336,"Longitude":-21.8934},{"ID":"0x0Aa071Bb7B4dAdf8F7d113B8CDdDb21cB5cCDaA8","CPU":25000,"GPU":1,"RAM":26188611584,"Online":false,"ConnectedSince":0,"CountryCode":"FR","Region":"IDF","City":"Pantin","Latitude":48.8958,"Longitude":2.4064},{"ID":"0x0aA51e0b7D53FBA5e70B591d362BF760aE151F99","CPU":0,"GPU":0,"RAM":0,"Online":true,"ConnectedSince":1730234270666,"CountryCode":"US","Region":"LA","City":"Monroe","Latitude":32.5891,"Longitude":-92.0664},{"ID":"0x0AaA2be11d819f8443E90dDa8e0dAba465bC5DBA","CPU":1000,"GPU":1,"RAM":33646637875,"Online":true,"ConnectedSince":1730165022425,"CountryCode":"US","Region":"9","City":"Vienna","Latitude":48.2049,"Longitude":16.3662},{"ID":"0x0b096bD51F2fEc15B554f9a42ddc3Ac3dB62480B","CPU":1000,"GPU":1,"RAM":1024,"Online":false,"ConnectedSince":0,"CountryCode":"US","Region":"1","City":"Reykjavik","Latitude":64.1336,"Longitude":-21.8934},{"ID":"0x0B11006bce54971f74F1F5a7c150e86f58328440","CPU":9000,"GPU":0,"RAM":26894860288,"Online":true,"ConnectedSince":1730208928736,"CountryCode":"RO","Region":"PH","City":"Ploieşti","Latitude":44.9467,"Longitude":26.0135},{"ID":"0x0b1A3CE72191dbBFa7e7F15Bc18491ab16Db4035","CPU":1000,"GPU":1,"RAM":1024,"Online":false,"ConnectedSince":0,"CountryCode":"DE","Region":"HE","City":"Frankfurt am Main","Latitude":50.1103,"Longitude":8.7147},{"ID":"0x0B30B374BDcfA95fAeacFf383f178eb864b833Bb","CPU":0,"GPU":0,"RAM":0,"Online":false,"ConnectedSince":0,"CountryCode":"US","Region":"MO","City":"Springfield","Latitude":37.2003,"Longitude":-93.2973},{"ID":"0x0b34Ca52A3C194852180671D33EA5D71B240a297","CPU":1000,"GPU":0,"RAM":1024,"Online":true,"ConnectedSince":1730218004253,"CountryCode":"ES","Region":"CT","City":"Barcelona","Latitude":41.3398,"Longitude":2.1528},{"ID":"0x0b3636CefB4ccd40ccBf911F466498eaC45e89A7","CPU":1000,"GPU":1,"RAM":33646637875,"Online":true,"ConnectedSince":1730221251241,"CountryCode":"CA","Region":"","City":"","Latitude":0,"Longitude":0},{"ID":"0x0b7B2D7dA99DeD9eB1f10ad03685ceE8FCdd3b1C","CPU":25000,"GPU":1,"RAM":432435485081,"Online":true,"ConnectedSince":1730193115405,"CountryCode":"NL","Region":"NH","City":"Amsterdam","Latitude":52.3962,"Longitude":4.85338},{"ID":"0x0b97246460249704b19DFb896d250cb38572B27b","CPU":0,"GPU":0,"RAM":0,"Online":true,"ConnectedSince":1730235028258,"CountryCode":"US","Region":"LA","City":"Monroe","Latitude":32.5891,"Longitude":-92.0664},{"ID":"0x0B9C4A5706899463888006ebad6e48c0a446Ca01","CPU":6000,"GPU":0,"RAM":13743895347,"Online":false,"ConnectedSince":0,"CountryCode":"CN","Region":"HN","City":"Changsha","Latitude":28.2014,"Longitude":112.9611},{"ID":"0x0bA58D33475465cB30036FA7433b7B3787Db9e1B","CPU":6000,"GPU":1,"RAM":13412070195,"Online":false,"ConnectedSince":0,"CountryCode":"US","Region":"MO","City":"Springfield","Latitude":37.2003,"Longitude":-93.2973},{"ID":"0x0BB74B516958e6DFd6db0BaE67C6E363AAAbbc94","CPU":1000,"GPU":1,"RAM":1024,"Online":false,"ConnectedSince":0,"CountryCode":"US","Region":"WA","City":"Seattle","Latitude":47.6034,"Longitude":-122.3414},{"ID":"0x0bC672a5AF41E491F6F3Cc0b92ab290475866B76","CPU":102000,"GPU":1,"RAM":432410594508,"Online":true,"ConnectedSince":1730218370166,"CountryCode":"AT","Region":"9","City":"Vienna","Latitude":48.2049,"Longitude":16.3662},{"ID":"0x0bf3DD19dFD96f84b6D857B7A5D67d85e8Bd7687","CPU":0,"GPU":0,"RAM":0,"Online":false,"ConnectedSince":0,"CountryCode":"US","Region":"MO","City":"Springfield","Latitude":37.2003,"Longitude":-93.2973},{"ID":"0x0bFB6a6a6F07179685042294815c1E84D1a75025","CPU":9000,"GPU":1,"RAM":13414236160,"Online":true,"ConnectedSince":1730186553191,"CountryCode":"US","Region":"LA","City":"Monroe","Latitude":32.5891,"Longitude":-92.0664},{"ID":"0x0c1e93D1833b8BcbC6be14B3bD468BA6F6dCCeCb","CPU":6000,"GPU":1,"RAM":53883414118,"Online":false,"ConnectedSince":0,"CountryCode":"IS","Region":"1","City":"Reykjavik","Latitude":64.1336,"Longitude":-21.8934},{"ID":"0x0c2A25f3A6029c54c3DD46358F44F98a7985E5c6","CPU":1000,"GPU":1,"RAM":1024,"Online":false,"ConnectedSince":0,"CountryCode":"DE","Region":"BY","City":"Nuremberg","Latitude":49.405,"Longitude":11.1617},{"ID":"0x0c3901E55F101C44ac5dD6349B047ca2e738C286","CPU":6000,"GPU":1,"RAM":13412063641,"Online":false,"ConnectedSince":0,"CountryCode":"US","Region":"MD","City":"Hagerstown","Latitude":39.6424,"Longitude":-77.7301},{"ID":"0x0c393ce5855FAc4553e133FedBA0CaE51c555Df7","CPU":1000,"GPU":1,"RAM":1024,"Online":false,"ConnectedSince":0,"CountryCode":"RU","Region":"TA","City":"Kazan'","Latitude":55.7524,"Longitude":49.1388},{"ID":"0x0C41D8Dbb66294A2721673eB6b0aC968468995F2","CPU":2000,"GPU":1,"RAM":2048,"Online":false,"ConnectedSince":0,"CountryCode":"CN","Region":"BJ","City":"Beijing","Latitude":39.9042,"Longitude":116.407},{"ID":"0x0C4485Cb64967a91e8307E881aC94Ea67584695f","CPU":1000,"GPU":1,"RAM":1024,"Online":false,"ConnectedSince":0,"CountryCode":"FI","Region":"19","City":"Turku","Latitude":60.4409,"Longitude":22.3021},{"ID":"0x0c58Eb7D0B2CaB28A25Bd7c4E6CeDCF704f9ebD2","CPU":1000,"GPU":1,"RAM":1024,"Online":false,"ConnectedSince":0,"CountryCode":"CH","Region":"ZH","City":"Opfikon","Latitude":47.43,"Longitude":8.5718},{"ID":"0x0c806f481346C39C3507B61cAB7B6E3737d3E469","CPU":25000,"GPU":1,"RAM":107357650944,"Online":true,"ConnectedSince":1730171265502,"CountryCode":"RO","Region":"","City":"","Latitude":0,"Longitude":0},{"ID":"0x0cB82D7B18be5b80ff39f12549e1Eea1c2e6cBB6","CPU":1000,"GPU":0,"RAM":1024,"Online":false,"ConnectedSince":0,"CountryCode":"US","Region":"CA","City":"Santa Monica","Latitude":34.0271,"Longitude":-118.5035},{"ID":"0x0CC137F841B4Fb2F36Fe729Ac8B85C759B84b3CE","CPU":6000,"GPU":1,"RAM":53841903616,"Online":false,"ConnectedSince":0,"CountryCode":"NL","Region":"NH","City":"Amsterdam","Latitude":52.3962,"Longitude":4.85338},{"ID":"0x0CE73974939A307398b50097f68bDbEdf90a3FE3","CPU":64000,"GPU":1,"RAM":26795655168,"Online":true,"ConnectedSince":1730131593505,"CountryCode":"CN","Region":"BJ","City":"Beijing","Latitude":39.9042,"Longitude":116.407},{"ID":"0x0cF254A763B8c08cb84C8d56e6F2e6E438D67364","CPU":1000,"GPU":1,"RAM":42102348185,"Online":true,"ConnectedSince":1730224856932,"CountryCode":"US","Region":"9","City":"Vienna","Latitude":48.2049,"Longitude":16.3662},{"ID":"0x0cF63d1D271BeE4e3E424eAcd464fe874C1d1c67","CPU":1000,"GPU":1,"RAM":1024,"Online":false,"ConnectedSince":0,"CountryCode":"TH","Region":"83","City":"Phuket","Latitude":7.95,"Longitude":98.3564},{"ID":"0x0d4bFf312F407d8b38d9E51f8c7e301B0011d1a9","CPU":0,"GPU":0,"RAM":0,"Online":true,"ConnectedSince":1730234522460,"CountryCode":"US","Region":"WY","City":"Casper","Latitude":42.8264,"Longitude":-106.2867},{"ID":"0x0d5365625559d64f547122C025FE41b1aD25709c","CPU":4000,"GPU":1,"RAM":4096,"Online":false,"ConnectedSince":0,"CountryCode":"CN","Region":"HN","City":"Langli","Latitude":28.1822,"Longitude":113.1051},{"ID":"0x0D6552f6a6505D9c44220862F78F74f378Ba4ff2","CPU":0,"GPU":0,"RAM":0,"Online":false,"ConnectedSince":0,"CountryCode":"NL","Region":"NH","City":"Amsterdam","Latitude":52.3962,"Longitude":4.85338},{"ID":"0x0D7282EE49CD4101A79060da0656Ce4f9666f230","CPU":16000,"GPU":1,"RAM":53839196979,"Online":true,"ConnectedSince":1730221278293,"CountryCode":"NL","Region":"NH","City":"Amsterdam","Latitude":52.3962,"Longitude":4.85338},{"ID":"0x0D8F869d13a74960Bce282912aCBE47B552e5A30","CPU":16000,"GPU":1,"RAM":107958697984,"Online":true,"ConnectedSince":1730224893847,"CountryCode":"NL","Region":"NH","City":"Amsterdam","Latitude":52.3962,"Longitude":4.85338},{"ID":"0x0DBF7C0B331c431f2172546Ff971473C939d7c41","CPU":2000,"GPU":1,"RAM":2048,"Online":false,"ConnectedSince":0,"CountryCode":"CN","Region":"BJ","City":"Beijing","Latitude":39.9042,"Longitude":116.407},{"ID":"0x0deD464b7e457D3BA039E9Fe428678acD4C1F520","CPU":1000,"GPU":1,"RAM":1024,"Online":false,"ConnectedSince":0,"CountryCode":"AU","Region":"NSW","City":"Sydney","Latitude":-33.8097,"Longitude":151.2503},{"ID":"0x0e24877b7367ac0D816eA6136b1C4D87C9db1A93","CPU":6000,"GPU":1,"RAM":33645379584,"Online":true,"ConnectedSince":1730233669950,"CountryCode":"EE","Region":"37","City":"Tallinn","Latitude":59.4381,"Longitude":24.7369},{"ID":"0x0e3D4fF6e75397FF36c4422433278aAC0A5a604b","CPU":1000,"GPU":1,"RAM":1024,"Online":false,"ConnectedSince":0,"CountryCode":"CN","Region":"GX","City":"Liuzhou","Latitude":24.3255,"Longitude":109.415},{"ID":"0x0EA0f186bed6740Ae50dEf6F833eccd669d12c57","CPU":0,"GPU":0,"RAM":0,"Online":false,"ConnectedSince":0,"CountryCode":"US","Region":"","City":"","Latitude":0,"Longitude":0},{"ID":"0x0Ea261fD6895b50da73B458A1bff414f2A66aB55","CPU":16000,"GPU":1,"RAM":26824120729,"Online":false,"ConnectedSince":0,"CountryCode":"NL","Region":"9","City":"Vienna","Latitude":48.2049,"Longitude":16.3662},{"ID":"0x0ee345bD138D273A68Fce8397384b66D70688d75","CPU":0,"GPU":0,"RAM":0,"Online":false,"ConnectedSince":0,"CountryCode":"GB","Region":"03","City":"Oslo","Latitude":59.9124,"Longitude":10.7742},{"ID":"0x0EED660121B1AA2a4DDAA3f55084C0a6B9F165b7","CPU":1000,"GPU":0,"RAM":1650717491,"Online":true,"ConnectedSince":1730186557384,"CountryCode":"ES","Region":"","City":"","Latitude":0,"Longitude":0},{"ID":"0x0EF092255c2a23F5dAE738Af58247f8a0A582CfE","CPU":0,"GPU":0,"RAM":0,"Online":true,"ConnectedSince":1730234867737,"CountryCode":"US","Region":"MO","City":"Springfield","Latitude":37.1661,"Longitude":-93.2458},{"ID":"0x0F2069ef8098909aFa2F691297a6a5450bD61b59","CPU":9000,"GPU":1,"RAM":13411231334,"Online":true,"ConnectedSince":1730213905290,"CountryCode":"US","Region":"","City":"","Latitude":0,"Longitude":0},{"ID":"0x0f45D068a61872471357C9eE505A094324B6Ce3b","CPU":0,"GPU":0,"RAM":0,"Online":false,"ConnectedSince":0,"CountryCode":"US","Region":"MD","City":"Hagerstown","Latitude":39.6424,"Longitude":-77.7301},{"ID":"0x0F7BB08fF9Be400dD8e735d0D00d1aBE9DD575aC","CPU":1000,"GPU":1,"RAM":1024,"Online":true,"ConnectedSince":1730232217081,"CountryCode":"NL","Region":"","City":"","Latitude":0,"Longitude":0},{"ID":"0x0FA21Fad2C0dc2A70D1B09A2BeD4D150D3b60DA9","CPU":6000,"GPU":1,"RAM":53888915865,"Online":true,"ConnectedSince":1730196869539,"CountryCode":"IS","Region":"1","City":"Reykjavik","Latitude":64.1336,"Longitude":-21.8934},{"ID":"0x0FB83f50f872D659Ae6269D6Dd58A6942DAa4da8","CPU":25000,"GPU":1,"RAM":40404906803,"Online":false,"ConnectedSince":0,"CountryCode":"US","Region":"","City":"","Latitude":0,"Longitude":0},{"ID":"0x0fc1A7461a550Cc803384cf61A33c1Ce8A073C63","CPU":0,"GPU":0,"RAM":0,"Online":true,"ConnectedSince":1730234975095,"CountryCode":"US","Region":"","City":"","Latitude":0,"Longitude":0},{"ID":"0x0FCaF9C88278A7Cb21c64A2357c9d46F9aB1A9e9","CPU":1000,"GPU":0,"RAM":1024,"Online":false,"ConnectedSince":0,"CountryCode":"US","Region":"MO","City":"St Louis","Latitude":38.4539,"Longitude":-90.328},{"ID":"0x0FE0F7e6535D87b2A2C411e2912532C24e7c09a6","CPU":16000,"GPU":1,"RAM":26775142400,"Online":false,"ConnectedSince":0,"CountryCode":"RO","Region":"B","City":"Sector 6","Latitude":44.4542,"Longitude":26.0225},{"ID":"0x0FED096c6C83D7eA5f290976120efB7F6cae403A","CPU":0,"GPU":0,"RAM":0,"Online":false,"ConnectedSince":0,"CountryCode":"US","Region":"WY","City":"Casper","Latitude":42.8569,"Longitude":-106.299},{"ID":"0x0Ff5d88a93dBa6D934df17f01756dd29aF1c14bb","CPU":0,"GPU":0,"RAM":0,"Online":true,"ConnectedSince":1730235004067,"CountryCode":"US","Region":"MO","City":"Springfield","Latitude":37.1661,"Longitude":-93.2458},{"ID":"0x0FfD84B5dAc29f8e5d5FF742Ee1ac2360F50EC77","CPU":9000,"GPU":1,"RAM":15082238771,"Online":true,"ConnectedSince":1730190376904,"CountryCode":"US","Region":"","City":"","Latitude":0,"Longitude":0},{"ID":"0x1009dD7Fd51ee2F8d09c4E7396BD4D872CD86f84","CPU":1000,"GPU":1,"RAM":1024,"Online":false,"ConnectedSince":0,"CountryCode":"RU","Region":"NVS","City":"Novosibirsk","Latitude":54.9022,"Longitude":83.0335},{"ID":"0x1015DdA5eEDCf5F2FF0e094ef393CD736CE1810b","CPU":1000,"GPU":1,"RAM":33646637875,"Online":true,"ConnectedSince":1730186545465,"CountryCode":"IS","Region":"1","City":"Hafnarfjordur","Latitude":64.0677,"Longitude":-21.9453},{"ID":"0x1017310df2e523C4676E94b361816F32c0C78f48","CPU":1000,"GPU":1,"RAM":1024,"Online":false,"ConnectedSince":0,"CountryCode":"CN","Region":"JX","City":"Nanchang","Latitude":28.6829,"Longitude":115.858},{"ID":"0x10174318572Ab4a73093c20596Ae07d85a3A6fFD","CPU":1000,"GPU":1,"RAM":16384,"Online":false,"ConnectedSince":0,"CountryCode":"US","Region":"VA","City":"Christiansburg","Latitude":37.1362,"Longitude":-80.4125},{"ID":"0x1052f38Cd62BEFE8D59757e3Bd27f60CED6E0C46","CPU":6000,"GPU":1,"RAM":53883414118,"Online":true,"ConnectedSince":1730186556330,"CountryCode":"IS","Region":"1","City":"Reykjavik","Latitude":64.1336,"Longitude":-21.8934},{"ID":"0x1076B42AA5eB4b851f7602f8E9df69245bA9d34f","CPU":25000,"GPU":1,"RAM":107361242316,"Online":true,"ConnectedSince":1730171197525,"CountryCode":"RO","Region":"CJ","City":"Cluj-Napoca","Latitude":46.7758,"Longitude":23.601},{"ID":"0x1078743EB86e02e4D517eC401E07ECbB8fD97b92","CPU":1000,"GPU":1,"RAM":3281561190,"Online":false,"ConnectedSince":0,"CountryCode":"EE","Region":"37","City":"Tallinn","Latitude":59.4381,"Longitude":24.7369},{"ID":"0x108340FA388f70BDA594FF3e9bCCdF900bB92Db1","CPU":9000,"GPU":1,"RAM":13411224780,"Online":false,"ConnectedSince":0,"CountryCode":"US","Region":"MO","City":"Springfield","Latitude":37.2003,"Longitude":-93.2973},{"ID":"0x10B4a5726658d3B0f58541131400714341FDBaD2","CPU":9000,"GPU":1,"RAM":13411228057,"Online":false,"ConnectedSince":0,"CountryCode":"US","Region":"MO","City":"Springfield","Latitude":37.1661,"Longitude":-93.2458},{"ID":"0x10Ba26697A3B33F33e3ee31c4fB02c3D82554840","CPU":1000,"GPU":1,"RAM":1024,"Online":false,"ConnectedSince":0,"CountryCode":"CN","Region":"JX","City":"Nanchang","Latitude":28.6829,"Longitude":115.858},{"ID":"0x10Ca05748cAEB4D60d496677B9b453C176859221","CPU":1000,"GPU":1,"RAM":33646637875,"Online":true,"ConnectedSince":1730217687812,"CountryCode":"CA","Region":"","City":"","Latitude":0,"Longitude":0},{"ID":"0x10eA0b6c6538FA71aCf06426Ec34A9B8c774c37A","CPU":51000,"GPU":2,"RAM":216083287244,"Online":false,"ConnectedSince":0,"CountryCode":"HK","Region":"KKC","City":"Tsim Sha Tsui","Latitude":22.2944,"Longitude":114.1596},{"ID":"0x10f029E0855e8F2677C3F53310180A3Cb94cC43A","CPU":1000,"GPU":1,"RAM":1024,"Online":false,"ConnectedSince":0,"CountryCode":"NL","Region":"NH","City":"Amsterdam","Latitude":52.3961,"Longitude":4.85469},{"ID":"0x10Fd0Dd2069126Ed3f00F41dc67A0c74BDeeBeA4","CPU":9000,"GPU":1,"RAM":13411231334,"Online":true,"ConnectedSince":1730152856722,"CountryCode":"US","Region":"","City":"","Latitude":0,"Longitude":0},{"ID":"0x110b82958F124E709C079ba8e7dB77D2B4e78D8E","CPU":9000,"GPU":1,"RAM":13411224780,"Online":false,"ConnectedSince":0,"CountryCode":"US","Region":"MO","City":"Springfield","Latitude":37.2003,"Longitude":-93.2973},{"ID":"0x110d945d10E4d07706B0D5A0Af416DE428542262","CPU":3000,"GPU":1,"RAM":13340318105,"Online":false,"ConnectedSince":0,"CountryCode":"ES","Region":"CT","City":"Barcelona","Latitude":41.4231,"Longitude":2.188},{"ID":"0x1132Fabe7FE0802220c2C3870Cab08298921c2b6","CPU":16000,"GPU":1,"RAM":26775142400,"Online":true,"ConnectedSince":1730140896422,"CountryCode":"RO","Region":"B","City":"Sector 6","Latitude":44.4542,"Longitude":26.0225},{"ID":"0x1161994F2f16864FF555C3Ba7B289ea25Fc97AA3","CPU":16000,"GPU":1,"RAM":216111208857,"Online":true,"ConnectedSince":1730234092085,"CountryCode":"NL","Region":"NH","City":"Amsterdam","Latitude":52.3962,"Longitude":4.85338},{"ID":"0x117E1E273b75d02b0227B96A3f3419Ae2B6dFb7F","CPU":6000,"GPU":1,"RAM":13412063641,"Online":false,"ConnectedSince":0,"CountryCode":"US","Region":"MD","City":"Hagerstown","Latitude":39.6424,"Longitude":-77.7301},{"ID":"0x11850fd65a49Ab496E8EacD9c1Fc11abDA7aBEB8","CPU":19000,"GPU":2,"RAM":107976205926,"Online":true,"ConnectedSince":1730141305296,"CountryCode":"ES","Region":"","City":"","Latitude":0,"Longitude":0},{"ID":"0x11b8929e6512803a6B86aF15eC5Ed25fA8F9f807","CPU":6000,"GPU":1,"RAM":53888899481,"Online":true,"ConnectedSince":1730219230591,"CountryCode":"IS","Region":"1","City":"Reykjavik","Latitude":64.1336,"Longitude":-21.8934},{"ID":"0x11c11314b7CB700Db9934F43AA7FCe21A0107b39","CPU":1000,"GPU":0,"RAM":1024,"Online":false,"ConnectedSince":0,"CountryCode":"US","Region":"MO","City":"St Louis","Latitude":38.4539,"Longitude":-90.328},{"ID":"0x11e670e351268A477A46820aEE84C2D0bD8922b5","CPU":6000,"GPU":1,"RAM":53888906035,"Online":true,"ConnectedSince":1730186545371,"CountryCode":"IS","Region":"1","City":"Reykjavik","Latitude":64.1336,"Longitude":-21.8934},{"ID":"0x12129ec8C0ED11977C8fBEc39ff81d57441073b4","CPU":25000,"GPU":2,"RAM":26916038246,"Online":false,"ConnectedSince":0,"CountryCode":"US","Region":"","City":"","Latitude":0,"Longitude":0},{"ID":"0x1226110b67CfFfE924B3D053C5058Fd804E32CE8","CPU":6000,"GPU":1,"RAM":13412070195,"Online":false,"ConnectedSince":0,"CountryCode":"US","Region":"MO","City":"Springfield","Latitude":37.2003,"Longitude":-93.2973},{"ID":"0x123976F8C7114a5e3Ab9415eCBEf5F63662c7E7b","CPU":9000,"GPU":1,"RAM":13411231334,"Online":true,"ConnectedSince":1730206577280,"CountryCode":"US","Region":"MO","City":"Springfield","Latitude":37.1661,"Longitude":-93.2458},{"ID":"0x123eBeEb6111E9866865f0D9cB48B40e2AC758Ec","CPU":6000,"GPU":1,"RAM":13412070195,"Online":false,"ConnectedSince":0,"CountryCode":"US","Region":"MO","City":"Springfield","Latitude":37.2003,"Longitude":-93.2973},{"ID":"0x1255b5222a350C8e39fD257087A5cc3d3315dEc7","CPU":102000,"GPU":1,"RAM":432410627276,"Online":false,"ConnectedSince":0,"CountryCode":"AT","Region":"9","City":"Vienna","Latitude":48.2049,"Longitude":16.3662},{"ID":"0x125E18afDb69BDd181E5B830413C213189B73711","CPU":9000,"GPU":1,"RAM":13411231334,"Online":true,"ConnectedSince":1730153273240,"CountryCode":"US","Region":"MO","City":"Springfield","Latitude":37.1661,"Longitude":-93.2458},{"ID":"0x126177291E6f24E3192Ab89E6Dc2388bA0C05aB8","CPU":6000,"GPU":1,"RAM":13412063641,"Online":false,"ConnectedSince":0,"CountryCode":"US","Region":"MD","City":"Hagerstown","Latitude":39.6424,"Longitude":-77.7301},{"ID":"0x127714c7FD7d1c196060A0B97b9a30464a5cEE2d","CPU":1000,"GPU":1,"RAM":33646637875,"Online":false,"ConnectedSince":0,"CountryCode":"US","Region":"9","City":"Vienna","Latitude":48.2049,"Longitude":16.3662},{"ID":"0x127c220ED71F040eb4f8daD994C2cf5952aC37b7","CPU":1000,"GPU":1,"RAM":1024,"Online":false,"ConnectedSince":0,"CountryCode":"CN","Region":"JX","City":"Nanchang","Latitude":28.6829,"Longitude":115.858},{"ID":"0x1294d1b0A62bDca2Fa3fbB50a5dE87B543C994Fe","CPU":1000,"GPU":1,"RAM":1024,"Online":false,"ConnectedSince":0,"CountryCode":"US","Region":"TX","City":"Austin","Latitude":30.2661,"Longitude":-97.7136},{"ID":"0x12A99EC8eC9D4fa11D9d46cbAB4F1ea60E410984","CPU":1000,"GPU":1,"RAM":33646637875,"Online":true,"ConnectedSince":1730224245710,"CountryCode":"US","Region":"NH","City":"Amsterdam","Latitude":52.3962,"Longitude":4.85338},{"ID":"0x12b1e370002fD36B1D2350a14761BBe192ac41fE","CPU":1000,"GPU":1,"RAM":1024,"Online":false,"ConnectedSince":0,"CountryCode":"SG","Region":"01","City":"Singapore","Latitude":1.31844,"Longitude":103.893},{"ID":"0x12D03648C304818CBe3A85D160f7dB9F22aa4950","CPU":1000,"GPU":1,"RAM":1024,"Online":false,"ConnectedSince":0,"CountryCode":"CH","Region":"ZH","City":"Zurich","Latitude":47.3535,"Longitude":8.6065},{"ID":"0x12F8dC3845dB9F808b6Ec8D3F9F6D8AD4D402c74","CPU":1000,"GPU":1,"RAM":33646637875,"Online":true,"ConnectedSince":1730217072272,"CountryCode":"CA","Region":"NH","City":"Amsterdam","Latitude":52.3962,"Longitude":4.85338},{"ID":"0x1324D0f2812e74032B8e7Dc0c307b47B3c4D86f0","CPU":16000,"GPU":1,"RAM":53839482060,"Online":false,"ConnectedSince":0,"CountryCode":"NL","Region":"NH","City":"Amsterdam","Latitude":52.3962,"Longitude":4.85338},{"ID":"0x13329201ebf9C4d7d14caE057240A2dc85ae7246","CPU":1000,"GPU":1,"RAM":33646637875,"Online":false,"ConnectedSince":0,"CountryCode":"US","Region":"NH","City":"Amsterdam","Latitude":52.3962,"Longitude":4.85338},{"ID":"0x133d58141425FbaBAF9024DEDC9356672cF9257B","CPU":16000,"GPU":1,"RAM":107959962828,"Online":true,"ConnectedSince":1730206413139,"CountryCode":"NL","Region":"NH","City":"Amsterdam","Latitude":52.3907,"Longitude":4.8637},{"ID":"0x1340248438BbDa025512B4C31aC3487494AF3c85","CPU":6000,"GPU":1,"RAM":6592603750,"Online":true,"ConnectedSince":1730232946700,"CountryCode":"CA","Region":"BC","City":"Surrey","Latitude":49.0823,"Longitude":-122.771},{"ID":"0x1342324aF5362A7F67A915Abe2f90D62e9952D96","CPU":22000,"GPU":1,"RAM":53840422502,"Online":true,"ConnectedSince":1730186547139,"CountryCode":"NL","Region":"","City":"","Latitude":0,"Longitude":0},{"ID":"0x137634496Ce8968d26b7B9a7CcA03c40fe562F1e","CPU":0,"GPU":0,"RAM":0,"Online":false,"ConnectedSince":0,"CountryCode":"NL","Region":"NH","City":"Amsterdam","Latitude":52.3962,"Longitude":4.85338},{"ID":"0x13771c9Ca3E9638d4e7a27ae69182497B7dD5aBD","CPU":1000,"GPU":1,"RAM":33646637875,"Online":true,"ConnectedSince":1730228345460,"CountryCode":"US","Region":"9","City":"Vienna","Latitude":48.2049,"Longitude":16.3662},{"ID":"0x1377937F08ca49dA95292CFFB5DA1197365B6227","CPU":0,"GPU":0,"RAM":0,"Online":true,"ConnectedSince":1730235065030,"CountryCode":"US","Region":"MO","City":"Springfield","Latitude":37.2003,"Longitude":-93.2973},{"ID":"0x1392643fB107A7998D2162c126918Ca842f306Af","CPU":1000,"GPU":1,"RAM":1024,"Online":false,"ConnectedSince":0,"CountryCode":"US","Region":"MO","City":"St Louis","Latitude":38.4539,"Longitude":-90.328},{"ID":"0x13971371132B09e6eCe526b7E42cCb04F6e33A75","CPU":22000,"GPU":1,"RAM":53840422502,"Online":true,"ConnectedSince":1730171465597,"CountryCode":"NL","Region":"NH","City":"Amsterdam","Latitude":52.3962,"Longitude":4.85338},{"ID":"0x13B0598F5A6C604119BBcD8ee6fc219E15B310B7","CPU":9000,"GPU":1,"RAM":13411231334,"Online":true,"ConnectedSince":1730208419651,"CountryCode":"US","Region":"","City":"","Latitude":0,"Longitude":0},{"ID":"0x13b286e018BDCB1cd609c82BC1Dd46120af0C48e","CPU":1000,"GPU":1,"RAM":33646637875,"Online":true,"ConnectedSince":1730235080811,"CountryCode":"IS","Region":"1","City":"Hafnarfjordur","Latitude":64.0677,"Longitude":-21.9453},{"ID":"0x13bAC77c7638B88B9aAAF2C5A942A759D62e092B","CPU":102000,"GPU":1,"RAM":432410627276,"Online":true,"ConnectedSince":1730141228376,"CountryCode":"AT","Region":"","City":"","Latitude":0,"Longitude":0},{"ID":"0x1403D40dC62006a6d568868fBD0173aB769f1dA0","CPU":1000,"GPU":1,"RAM":1024,"Online":false,"ConnectedSince":0,"CountryCode":"US","Region":"MO","City":"St Louis","Latitude":38.4539,"Longitude":-90.328},{"ID":"0x140Ab108dd2590cCb6Ce8cF418707BBA2B576f61","CPU":22000,"GPU":6,"RAM":104669321625,"Online":true,"ConnectedSince":1730186558504,"CountryCode":"US","Region":"MO","City":"Springfield","Latitude":37.1661,"Longitude":-93.2458},{"ID":"0x1429728766ca1BDbCe100B42F5AC430053Fa5Dd4","CPU":0,"GPU":0,"RAM":0,"Online":false,"ConnectedSince":0,"CountryCode":"US","Region":"MO","City":"Springfield","Latitude":37.2003,"Longitude":-93.2973},{"ID":"0x1469C76F035Ccc0d1b3f2bC5A75FF0E439D1D10d","CPU":3000,"GPU":1,"RAM":13412909056,"Online":true,"ConnectedSince":1730233725430,"CountryCode":"US","Region":"MO","City":"Springfield","Latitude":37.1661,"Longitude":-93.2458},{"ID":"0x1490602Fa90D47a772613d542317784d094aB034","CPU":9000,"GPU":1,"RAM":13414229606,"Online":false,"ConnectedSince":0,"CountryCode":"US","Region":"LA","City":"Monroe","Latitude":32.5891,"Longitude":-92.0664},{"ID":"0x154268E1A8C87b1322aC07b5c477625D2C39cD43","CPU":1000,"GPU":1,"RAM":33646637875,"Online":true,"ConnectedSince":1730203607420,"CountryCode":"CA","Region":"","City":"","Latitude":0,"Longitude":0},{"ID":"0x15459BC2509aB123dB38176950760AB8Ec920e91","CPU":6000,"GPU":1,"RAM":13412070195,"Online":false,"ConnectedSince":0,"CountryCode":"CA","Region":"MB","City":"Winnipeg","Latitude":49.9716,"Longitude":-97.1515},{"ID":"0x158E6038Ddd2E7cFC7c781A656296900b43279CB","CPU":25000,"GPU":1,"RAM":107361242316,"Online":true,"ConnectedSince":1730171197541,"CountryCode":"RO","Region":"","City":"","Latitude":0,"Longitude":0},{"ID":"0x158Fb3190C5b36b47724ba4CA4E2a4B08C9A4027","CPU":16000,"GPU":1,"RAM":53842146099,"Online":true,"ConnectedSince":1730186549403,"CountryCode":"NL","Region":"NH","City":"Amsterdam","Latitude":52.3962,"Longitude":4.85338},{"ID":"0x15d34AAf54267DB7D7c367839AAf71A00a2C6A65","CPU":1000,"GPU":1,"RAM":1024,"Online":false,"ConnectedSince":0,"CountryCode":"US","Region":"OR","City":"Forest Grove","Latitude":45.6031,"Longitude":-123.1955},{"ID":"0x15db1cEE10e27a17ADBCBA8FD75798DE7Fa97Fa2","CPU":6000,"GPU":1,"RAM":13412066918,"Online":false,"ConnectedSince":0,"CountryCode":"US","Region":"MD","City":"Hagerstown","Latitude":39.6424,"Longitude":-77.7301},{"ID":"0x15e7B0fA121Db3e311c4721e9Cebbaf654024812","CPU":6000,"GPU":1,"RAM":53888902758,"Online":true,"ConnectedSince":1730196829577,"CountryCode":"IS","Region":"","City":"","Latitude":0,"Longitude":0},{"ID":"0x160caA6CB54bC526902B3f8b2A28b221C3715844","CPU":4000,"GPU":1,"RAM":13211254428,"Online":true,"ConnectedSince":1730141254797,"CountryCode":"RO","Region":"B","City":"Bucharest","Latitude":44.4152,"Longitude":26.166},{"ID":"0x160F87CbD14B75899F1A178e4d4Fb7072e187f4f","CPU":3000,"GPU":1,"RAM":13412909056,"Online":true,"ConnectedSince":1730231899637,"CountryCode":"US","Region":"","City":"","Latitude":0,"Longitude":0},{"ID":"0x161378a3AB73a23Fa43e6816F33A73c53570368e","CPU":1000,"GPU":1,"RAM":1024,"Online":false,"ConnectedSince":0,"CountryCode":"JP","Region":"13","City":"Tokyo","Latitude":35.6893,"Longitude":139.6899},{"ID":"0x1660183f38816B25129dBa08BfcB5A5D5971c413","CPU":0,"GPU":0,"RAM":0,"Online":false,"ConnectedSince":0,"CountryCode":"AT","Region":"9","City":"Vienna","Latitude":48.2049,"Longitude":16.3662},{"ID":"0x166F9f3541B2F54e490BbfA402390a7a8FC599db","CPU":16000,"GPU":1,"RAM":107958697984,"Online":false,"ConnectedSince":0,"CountryCode":"NL","Region":"NH","City":"Amsterdam","Latitude":52.3962,"Longitude":4.85338},{"ID":"0x1685fB58Cc5d479Fa41969E8731f25b787198470","CPU":9000,"GPU":1,"RAM":13411228057,"Online":false,"ConnectedSince":0,"CountryCode":"US","Region":"MO","City":"Springfield","Latitude":37.1661,"Longitude":-93.2458},{"ID":"0x168Be11eCbde7BD03d6E8ffD82DF7a6685f04d00","CPU":16000,"GPU":1,"RAM":53839308390,"Online":false,"ConnectedSince":0,"CountryCode":"NL","Region":"NH","City":"Amsterdam","Latitude":52.3962,"Longitude":4.85338},{"ID":"0x1699dB8a80E2BA613d6d33f8AD3F7ee7c1c44A79","CPU":102000,"GPU":1,"RAM":432410630553,"Online":true,"ConnectedSince":1730196087737,"CountryCode":"AT","Region":"NH","City":"Amsterdam","Latitude":52.3962,"Longitude":4.85338},{"ID":"0x172373326eebBf79d51B10F983F7872fC8e8b5F1","CPU":3000,"GPU":1,"RAM":13412909056,"Online":false,"ConnectedSince":0,"CountryCode":"US","Region":"MO","City":"Springfield","Latitude":37.1661,"Longitude":-93.2458},{"ID":"0x172DD9F44b80bCD8C735D6f4963915c4d7835bF1","CPU":3000,"GPU":1,"RAM":13340318105,"Online":false,"ConnectedSince":0,"CountryCode":"ES","Region":"CT","City":"Barcelona","Latitude":41.4231,"Longitude":2.188},{"ID":"0x175B527494C74B428C1877D9016d1Fa7dF58D026","CPU":102000,"GPU":1,"RAM":432410630553,"Online":true,"ConnectedSince":1730196080996,"CountryCode":"AT","Region":"","City":"","Latitude":0,"Longitude":0},{"ID":"0x17E9d3688f5d391DB623721C0Ed7Cd456c792F61","CPU":1000,"GPU":1,"RAM":1024,"Online":true,"ConnectedSince":1722546908366,"CountryCode":"SG","Region":"03","City":"Singapore","Latitude":1.35208,"Longitude":103.82},{"ID":"0x17F900bFdEEce3b265f8eB9F2DFaEEb86E6981a7","CPU":51000,"GPU":1,"RAM":323463413760,"Online":true,"ConnectedSince":1730220827582,"CountryCode":"NL","Region":"NH","City":"Amsterdam","Latitude":52.3961,"Longitude":4.85469},{"ID":"0x18088B72ad41f20cE3F103fbf975b1Be9e16eAE4","CPU":1000,"GPU":1,"RAM":1024,"Online":false,"ConnectedSince":0,"CountryCode":"US","Region":"VA","City":"Ashburn","Latitude":39.0438,"Longitude":-77.4874},{"ID":"0x1847441BeBa4FE84232fbfbaCD70F27C9fFca28c","CPU":102000,"GPU":1,"RAM":432410624000,"Online":false,"ConnectedSince":0,"CountryCode":"NL","Region":"","City":"","Latitude":0,"Longitude":0},{"ID":"0x1849f23fb2318a8056F672bF017810D0EbFfA7a7","CPU":0,"GPU":0,"RAM":0,"Online":true,"ConnectedSince":1730234131991,"CountryCode":"US","Region":"","City":"","Latitude":0,"Longitude":0},{"ID":"0x1855aF69b49B0eA26eeE617b01d9bbcF65616984","CPU":9000,"GPU":1,"RAM":13411231334,"Online":true,"ConnectedSince":1730221235193,"CountryCode":"US","Region":"","City":"","Latitude":0,"Longitude":0},{"ID":"0x18594A144B5E13FE81e89B7f1f14F001CEeAe032","CPU":1000,"GPU":1,"RAM":1024,"Online":false,"ConnectedSince":0,"CountryCode":"RO","Region":"PH","City":"Ploieşti","Latitude":44.9467,"Longitude":26.0135},{"ID":"0x188B15Ae69DF423CaA70923B3724462f7dd276a0","CPU":6000,"GPU":1,"RAM":53888915865,"Online":true,"ConnectedSince":1730196848339,"CountryCode":"IS","Region":"1","City":"Reykjavik","Latitude":64.1336,"Longitude":-21.8934},{"ID":"0x189398cb51EE6435cAdC1844B9b081227f1cFB4d","CPU":0,"GPU":0,"RAM":0,"Online":false,"ConnectedSince":0,"CountryCode":"US","Region":"OR","City":"Portland","Latitude":45.5152,"Longitude":-122.678},{"ID":"0x18983e8d34Eae2DB450E06ba511fE19AE2105e6E","CPU":1000,"GPU":1,"RAM":1024,"Online":false,"ConnectedSince":0,"CountryCode":"US","Region":"CJ","City":"Cluj-Napoca","Latitude":46.7758,"Longitude":23.601},{"ID":"0x189fFea4CA40C626a0C087cAdA5C20F98e265C39","CPU":1000,"GPU":1,"RAM":1024,"Online":false,"ConnectedSince":0,"CountryCode":"CN","Region":"GX","City":"Liuzhou","Latitude":24.3255,"Longitude":109.415},{"ID":"0x18a80FaF2608eC0E9D9034582feB5dEa8EE28705","CPU":1000,"GPU":0,"RAM":1024,"Online":false,"ConnectedSince":0,"CountryCode":"US","Region":"CA","City":"Cotati","Latitude":38.3226,"Longitude":-122.7},{"ID":"0x18A8a36F840049C4C6f5C620Ad47Bc4b4599E70a","CPU":9000,"GPU":1,"RAM":13411231334,"Online":true,"ConnectedSince":1730221227466,"CountryCode":"US","Region":"","City":"","Latitude":0,"Longitude":0},{"ID":"0x18b80deeAe65eF52382f61927e66b5Af47a4f600","CPU":0,"GPU":0,"RAM":0,"Online":true,"ConnectedSince":1730235059403,"CountryCode":"US","Region":"LA","City":"Monroe","Latitude":32.5891,"Longitude":-92.0664},{"ID":"0x18cCAe9945Fac2a6662E2Cae00D8E878160E4097","CPU":0,"GPU":0,"RAM":0,"Online":false,"ConnectedSince":0,"CountryCode":"AT","Region":"9","City":"Vienna","Latitude":48.2049,"Longitude":16.3662},{"ID":"0x18d1622F6949E6C947F696190C591bE6352C3b53","CPU":9000,"GPU":1,"RAM":13286798131,"Online":true,"ConnectedSince":1730229043440,"CountryCode":"ES","Region":"MD","City":"Alcobendas","Latitude":40.5337,"Longitude":-3.62788},{"ID":"0x18f472fE109aD557bdf50D575aA390918796B4ff","CPU":2000,"GPU":1,"RAM":2048,"Online":false,"ConnectedSince":0,"CountryCode":"CN","Region":"BJ","City":"Beijing","Latitude":39.9042,"Longitude":116.407},{"ID":"0x18f8e1ef276ba603D926235884286A0d04307C5e","CPU":9000,"GPU":1,"RAM":13414229606,"Online":false,"ConnectedSince":0,"CountryCode":"US","Region":"LA","City":"Monroe","Latitude":32.5891,"Longitude":-92.0664},{"ID":"0x18Fa612715564841C9ec51c6676e62F053636feF","CPU":1000,"GPU":0,"RAM":1024,"Online":true,"ConnectedSince":1730233335379,"CountryCode":"US","Region":"MO","City":"St Louis","Latitude":38.4539,"Longitude":-90.328},{"ID":"0x190F5Aa5CcbeAbBe9c068ce5E4a4a444ac0cA6dd","CPU":0,"GPU":0,"RAM":0,"Online":true,"ConnectedSince":1730234825108,"CountryCode":"US","Region":"","City":"","Latitude":0,"Longitude":0},{"ID":"0x19115B4BB6B25175e14FC07Ca5EeDe0E8D6D99d2","CPU":9000,"GPU":1,"RAM":13411231334,"Online":true,"ConnectedSince":1730233147677,"CountryCode":"US","Region":"MO","City":"Springfield","Latitude":37.1661,"Longitude":-93.2458},{"ID":"0x1933c0d0c768690185EAD9307963A456775A8CbE","CPU":4000,"GPU":1,"RAM":4096,"Online":false,"ConnectedSince":0,"CountryCode":"CN","Region":"HN","City":"Langli","Latitude":28.1822,"Longitude":113.1051},{"ID":"0x193c637E30A8149F6034651EEFEAA8b5b2eA1363","CPU":1000,"GPU":1,"RAM":1024,"Online":false,"ConnectedSince":0,"CountryCode":"PL","Region":"18","City":"Rzeszów","Latitude":50.0535,"Longitude":22.0069},{"ID":"0x194d7A8E204F72B922195Fb5bd1BEcFfEA7a4De8","CPU":2000,"GPU":1,"RAM":2048,"Online":false,"ConnectedSince":0,"CountryCode":"CN","Region":"BJ","City":"Beijing","Latitude":39.9042,"Longitude":116.407},{"ID":"0x19aaac2CBb3E8B26d3825c9d39b9D75e5679050a","CPU":6000,"GPU":1,"RAM":13412073472,"Online":false,"ConnectedSince":0,"CountryCode":"US","Region":"MO","City":"Springfield","Latitude":37.2003,"Longitude":-93.2973},{"ID":"0x19AeaC507B720AF67E171E3b0B0C6cA715F887E0","CPU":1000,"GPU":1,"RAM":33646637875,"Online":true,"ConnectedSince":1730226088022,"CountryCode":"CA","Region":"","City":"","Latitude":0,"Longitude":0},{"ID":"0x19d8a26da8622fC8dCa101E34f2B65743a30040E","CPU":0,"GPU":0,"RAM":0,"Online":false,"ConnectedSince":0,"CountryCode":"CN","Region":"ZJ","City":"Hangzhou","Latitude":30.2994,"Longitude":120.1612},{"ID":"0x1A17D105121B883f7DbfFc60A74e7393cd58E856","CPU":102000,"GPU":1,"RAM":432410230784,"Online":false,"ConnectedSince":0,"CountryCode":"NL","Region":"","City":"","Latitude":0,"Longitude":0},{"ID":"0x1a36F271552C031E89e02480A0f33Dd0dc393403","CPU":9000,"GPU":1,"RAM":13286798131,"Online":true,"ConnectedSince":1730228891832,"CountryCode":"ES","Region":"MD","City":"Alcobendas","Latitude":40.5337,"Longitude":-3.62788},{"ID":"0x1a53335C9AaA9E6C2AE6aa0b7a242Aa166A78102","CPU":25000,"GPU":1,"RAM":107357496934,"Online":false,"ConnectedSince":0,"CountryCode":"RO","Region":"OR","City":"Portland","Latitude":45.5152,"Longitude":-122.678},{"ID":"0x1A74Fa8Ba09BbcD4A555b72986F359C36A42b232","CPU":6000,"GPU":1,"RAM":33645379584,"Online":true,"ConnectedSince":1730234324350,"CountryCode":"EE","Region":"","City":"","Latitude":0,"Longitude":0},{"ID":"0x1Ac50E37b2F7d5c74d16ae405F5EcCb440Feff28","CPU":1000,"GPU":1,"RAM":1024,"Online":false,"ConnectedSince":0,"CountryCode":"CN","Region":"JX","City":"Nanchang","Latitude":28.682,"Longitude":115.858},{"ID":"0x1acfa1D7458DFB03B49e8055fE07C79998231AC6","CPU":1000,"GPU":0,"RAM":1024,"Online":false,"ConnectedSince":0,"CountryCode":"US","Region":"","City":"","Latitude":0,"Longitude":0},{"ID":"0x1AD60f02C3b0978ad7a252eC1A388b84A83c9657","CPU":1000,"GPU":1,"RAM":33646637875,"Online":true,"ConnectedSince":1730219433720,"CountryCode":"US","Region":"9","City":"Vienna","Latitude":48.2049,"Longitude":16.3662},{"ID":"0x1Ad7A297195e6a9F9700d590493E52C0f43D0362","CPU":4000,"GPU":1,"RAM":4096,"Online":false,"ConnectedSince":0,"CountryCode":"CN","Region":"HN","City":"Langli","Latitude":28.1822,"Longitude":113.1051},{"ID":"0x1AdE82Ec85da79e47159c25BB507D8B56EaE5344","CPU":16000,"GPU":0,"RAM":26817003520,"Online":true,"ConnectedSince":1730216896097,"CountryCode":"RO","Region":"PH","City":"Ploieşti","Latitude":44.9467,"Longitude":26.0135},{"ID":"0x1b0DE82cF227e7Aa99E5bbDd797343DCbB498Dd9","CPU":102000,"GPU":1,"RAM":432410630553,"Online":true,"ConnectedSince":1730212289068,"CountryCode":"AT","Region":"NH","City":"Amsterdam","Latitude":52.3962,"Longitude":4.85338},{"ID":"0x1B4Db9E7fbAC2BD43028ad89F1443E8452E1Ce0C","CPU":16000,"GPU":1,"RAM":53842142822,"Online":true,"ConnectedSince":1730224074679,"CountryCode":"NL","Region":"NH","City":"Amsterdam","Latitude":52.3962,"Longitude":4.85338},{"ID":"0x1b6C4618783bc87380eeD37AAae6faD0Ba0302c3","CPU":16000,"GPU":1,"RAM":53839485337,"Online":false,"ConnectedSince":0,"CountryCode":"NL","Region":"NH","City":"Amsterdam","Latitude":52.3962,"Longitude":4.85338},{"ID":"0x1b7b4514a457BF11c46832c01848b0cDF563c5c2","CPU":1000,"GPU":1,"RAM":1024,"Online":false,"ConnectedSince":0,"CountryCode":"CN","Region":"JX","City":"Nanchang","Latitude":28.6829,"Longitude":115.858},{"ID":"0x1B815F8E427Bd558D5fB3EF7A1aa35a225Bae465","CPU":6000,"GPU":1,"RAM":53888902758,"Online":true,"ConnectedSince":1730196921004,"CountryCode":"IS","Region":"1","City":"Reykjavik","Latitude":64.1336,"Longitude":-21.8934},{"ID":"0x1B9993835808c59786a7f07492C7Fd1B763B0326","CPU":102000,"GPU":1,"RAM":432410624000,"Online":false,"ConnectedSince":0,"CountryCode":"NL","Region":"NH","City":"Amsterdam","Latitude":52.3962,"Longitude":4.85338},{"ID":"0x1B9f7f972178273B416F31822Fb3429FbA62084C","CPU":11000,"GPU":1,"RAM":18464109363,"Online":true,"ConnectedSince":1730234110489,"CountryCode":"US","Region":"CA","City":"Los Angeles","Latitude":34.0549,"Longitude":-118.243},{"ID":"0x1bAad8384da33016F9dAAE11A04B7f8D31eb3E8D","CPU":1000,"GPU":1,"RAM":33646637875,"Online":true,"ConnectedSince":1730234460882,"CountryCode":"US","Region":"LA","City":"Monroe","Latitude":32.5891,"Longitude":-92.0664},{"ID":"0x1bF427e2E5deAbA067eAD8e538202ab9cF593885","CPU":16000,"GPU":0,"RAM":26847199232,"Online":true,"ConnectedSince":1730127339090,"CountryCode":"RO","Region":"PH","City":"Ploieşti","Latitude":44.9467,"Longitude":26.0135},{"ID":"0x1bf9BA791d75399D52E13c76564c65321E353791","CPU":1000,"GPU":1,"RAM":1024,"Online":false,"ConnectedSince":0,"CountryCode":"US","Region":"MO","City":"St Louis","Latitude":38.4539,"Longitude":-90.328},{"ID":"0x1bfEDA716F2ac3F184298faF1466EF39e4D01496","CPU":6000,"GPU":1,"RAM":33645379584,"Online":true,"ConnectedSince":1730228784544,"CountryCode":"EE","Region":"37","City":"Tallinn","Latitude":59.4381,"Longitude":24.7369},{"ID":"0x1BFF0F615E8495B79ac1e958b8BC04D4b9fBf8Eb","CPU":6000,"GPU":1,"RAM":13412066918,"Online":false,"ConnectedSince":0,"CountryCode":"US","Region":"MD","City":"Hagerstown","Latitude":39.6424,"Longitude":-77.7301},{"ID":"0x1c01906bD6Fd094421B29c0f08d9117F38397f21","CPU":11000,"GPU":1,"RAM":18464109363,"Online":true,"ConnectedSince":1730224931190,"CountryCode":"US","Region":"CA","City":"Los Angeles","Latitude":34.0549,"Longitude":-118.243},{"ID":"0x1C29Bc5b144480Fd38F45da82Cc7674A0dA930ee","CPU":0,"GPU":0,"RAM":0,"Online":false,"ConnectedSince":0,"CountryCode":"US","Region":"MO","City":"Springfield","Latitude":37.2003,"Longitude":-93.2973},{"ID":"0x1C5C5C62F0Afa9d6FE335F8ff6ee95c157171E91","CPU":12000,"GPU":1,"RAM":26810482688,"Online":true,"ConnectedSince":1730210843457,"CountryCode":"RO","Region":"PH","City":"Ploieşti","Latitude":44.9467,"Longitude":26.0135},{"ID":"0x1C6651e7228Cfb9bCa39a9D4107B602B33CC7b11","CPU":6000,"GPU":1,"RAM":13412063641,"Online":false,"ConnectedSince":0,"CountryCode":"US","Region":"MO","City":"Springfield","Latitude":37.2003,"Longitude":-93.2973},{"ID":"0x1c7D33Cd77fc7b09F6891a184F97959536f7CDF6","CPU":0,"GPU":0,"RAM":0,"Online":true,"ConnectedSince":1730207390132,"CountryCode":"US","Region":"","City":"","Latitude":0,"Longitude":0},{"ID":"0x1cBE3906cC8DD978D303A66d5f8b611356B4A609","CPU":25000,"GPU":1,"RAM":432435485081,"Online":true,"ConnectedSince":1730193104107,"CountryCode":"NL","Region":"NH","City":"Amsterdam","Latitude":52.3962,"Longitude":4.85338},{"ID":"0x1cdc435eFe7787825fb127CF80dC624C8dB55bB3","CPU":1000,"GPU":0,"RAM":3285005107,"Online":true,"ConnectedSince":1730213790324,"CountryCode":"RO","Region":"","City":"","Latitude":0,"Longitude":0},{"ID":"0x1cf098be8C548e31973Ae9754233705f8f689147","CPU":6000,"GPU":1,"RAM":13412066918,"Online":false,"ConnectedSince":0,"CountryCode":"US","Region":"LA","City":"Monroe","Latitude":32.5891,"Longitude":-92.0664},{"ID":"0x1cF8B3fE99d482a155d27368544527cB787a3e11","CPU":1000,"GPU":1,"RAM":33646637875,"Online":true,"ConnectedSince":1730221061784,"CountryCode":"IS","Region":"1","City":"Hafnarfjordur","Latitude":64.0677,"Longitude":-21.9453},{"ID":"0x1D750c8B60666034e941494c64b65DfaBD05Bcf1","CPU":16000,"GPU":1,"RAM":53843401113,"Online":true,"ConnectedSince":1730233558570,"CountryCode":"NL","Region":"NH","City":"Amsterdam","Latitude":52.3962,"Longitude":4.85338},{"ID":"0x1D771471C24adF010FfA33E1f4F24b85a3dC64DA","CPU":1000,"GPU":0,"RAM":1024,"Online":false,"ConnectedSince":0,"CountryCode":"FI","Region":"19","City":"Turku","Latitude":60.4409,"Longitude":22.3021},{"ID":"0x1dcfDA3c1dC01c1027A54C0569Fd4096FF595A5a","CPU":1000,"GPU":1,"RAM":33646637875,"Online":true,"ConnectedSince":1730217808829,"CountryCode":"CA","Region":"","City":"","Latitude":0,"Longitude":0},{"ID":"0x1DD5fd7b1C48d9643434490DF45D2B723612326E","CPU":16000,"GPU":1,"RAM":53840815718,"Online":false,"ConnectedSince":0,"CountryCode":"NL","Region":"NH","City":"Amsterdam","Latitude":52.3962,"Longitude":4.85338},{"ID":"0x1DE20BF8BcC62f516a7f0cC93e0321D6E61870fE","CPU":1000,"GPU":1,"RAM":1024,"Online":false,"ConnectedSince":0,"CountryCode":"US","Region":"NY","City":"New York","Latitude":40.7128,"Longitude":-74.006},{"ID":"0x1DE831f5DF06c26071334D2192f46C2d63F70361","CPU":1000,"GPU":0,"RAM":1024,"Online":false,"ConnectedSince":0,"CountryCode":"US","Region":"CA","City":"Santa Monica","Latitude":34.0271,"Longitude":-118.5035},{"ID":"0x1Df48198471964Ef2AfB1915a4DAD6E188E4c6E8","CPU":102000,"GPU":1,"RAM":432410630553,"Online":false,"ConnectedSince":0,"CountryCode":"AT","Region":"9","City":"Vienna","Latitude":48.2049,"Longitude":16.3662},{"ID":"0x1E6d320581fFC7F90D0dA32fa2e53E9e1add9FF4","CPU":1000,"GPU":1,"RAM":1024,"Online":false,"ConnectedSince":0,"CountryCode":"CA","Region":"MB","City":"Winnipeg","Latitude":49.9716,"Longitude":-97.1515},{"ID":"0x1E755eF694160c9Cf2664b9ac09303A403C4a873","CPU":25000,"GPU":1,"RAM":51914063872,"Online":true,"ConnectedSince":1730196623803,"CountryCode":"PL","Region":"14","City":"Warsaw","Latitude":52.2297,"Longitude":21.0064},{"ID":"0x1E7fBc5f4f4f5B1a29bABEEC0746833d148318e9","CPU":3000,"GPU":1,"RAM":13380285235,"Online":false,"ConnectedSince":0,"CountryCode":"CA","Region":"BC","City":"Surrey","Latitude":49.0823,"Longitude":-122.771},{"ID":"0x1Ee8ED32f9be363e69e6B34c28294116D2fc0CFd","CPU":11000,"GPU":1,"RAM":18464109363,"Online":true,"ConnectedSince":1730228587873,"CountryCode":"US","Region":"CA","City":"Los Angeles","Latitude":34.0549,"Longitude":-118.243},{"ID":"0x1f038Edf99fDBf766DA603cd5e3930acE04D0194","CPU":9000,"GPU":1,"RAM":13414229606,"Online":false,"ConnectedSince":0,"CountryCode":"US","Region":"MD","City":"Hagerstown","Latitude":39.6424,"Longitude":-77.7301},{"ID":"0x1f19452F9C86636A3A90c391Eef42D1E8D5fa719","CPU":102000,"GPU":1,"RAM":432410630553,"Online":true,"ConnectedSince":1730196101569,"CountryCode":"AT","Region":"","City":"","Latitude":0,"Longitude":0},{"ID":"0x1F2b16117a727ffeB8f65A1c5B1118c30C9b046d","CPU":1000,"GPU":1,"RAM":1024,"Online":false,"ConnectedSince":0,"CountryCode":"CN","Region":"JX","City":"Nanchang","Latitude":28.6829,"Longitude":115.858},{"ID":"0x1f68CbB7f55AA44C707EA86007DBE7a1f6ba0a4E","CPU":1000,"GPU":1,"RAM":33646637875,"Online":true,"ConnectedSince":1730226956269,"CountryCode":"IS","Region":"1","City":"Hafnarfjordur","Latitude":64.0677,"Longitude":-21.9453},{"ID":"0x1F7e2f25DBaaC50B591fC7260E4b33391AdE5753","CPU":102000,"GPU":1,"RAM":432410594508,"Online":true,"ConnectedSince":1730140734765,"CountryCode":"AT","Region":"","City":"","Latitude":0,"Longitude":0},{"ID":"0x1F90D22Bc2d0EE388535404A6792066Ba8059bC5","CPU":9000,"GPU":1,"RAM":15082238771,"Online":true,"ConnectedSince":1730213969856,"CountryCode":"US","Region":"","City":"","Latitude":0,"Longitude":0},{"ID":"0x1FA16c6165848b92Cc6da3BE85d823eFC5925beA","CPU":1000,"GPU":0,"RAM":1024,"Online":false,"ConnectedSince":0,"CountryCode":"US","Region":"","City":"","Latitude":0,"Longitude":0},{"ID":"0x1FA17f38D455B1263B870F78995d5b5dFa022000","CPU":1000,"GPU":1,"RAM":1024,"Online":false,"ConnectedSince":0,"CountryCode":"CN","Region":"HA","City":"Zhengzhou","Latitude":34.7657,"Longitude":113.753},{"ID":"0x1fa224fA89C070CDCc185806516C4a1384bB156c","CPU":1000,"GPU":1,"RAM":1024,"Online":false,"ConnectedSince":0,"CountryCode":"US","Region":"CA","City":"Santa Monica","Latitude":34.0271,"Longitude":-118.5035},{"ID":"0x1fae8AeF66757640C1D1f6CEc5A164bdeFc08c18","CPU":6000,"GPU":1,"RAM":13412070195,"Online":false,"ConnectedSince":0,"CountryCode":"US","Region":"MO","City":"Springfield","Latitude":37.2003,"Longitude":-93.2973},{"ID":"0x1Fc3Aa5562C3D9E17EEb766155A1311c9f4456Ea","CPU":6000,"GPU":1,"RAM":13412070195,"Online":false,"ConnectedSince":0,"CountryCode":"US","Region":"MO","City":"Springfield","Latitude":37.2003,"Longitude":-93.2973},{"ID":"0x1FddCfcfC9B5934011f76eBb17797009Ea2798E5","CPU":8000,"GPU":0,"RAM":15461882265,"Online":true,"ConnectedSince":1730164862570,"CountryCode":"CN","Region":"SH","City":"Shanghai","Latitude":31.2222,"Longitude":121.4581},{"ID":"0x1Fe52811ed4a5e7a9B4CC219258380A60D47E3AF","CPU":16000,"GPU":1,"RAM":26775142400,"Online":true,"ConnectedSince":1730140808063,"CountryCode":"RO","Region":"B","City":"Sector 6","Latitude":44.4542,"Longitude":26.0225},{"ID":"0x1fF060C5a30AB245F77eA30763ed110A15208BF8","CPU":0,"GPU":0,"RAM":0,"Online":true,"ConnectedSince":1730234419292,"CountryCode":"US","Region":"MO","City":"Springfield","Latitude":37.1661,"Longitude":-93.2458},{"ID":"0x1ff253209Ca7dC79b921729EF0C254f4b1e1E738","CPU":1000,"GPU":1,"RAM":33646637875,"Online":true,"ConnectedSince":1730227707184,"CountryCode":"US","Region":"9","City":"Vienna","Latitude":48.2049,"Longitude":16.3662},{"ID":"0x1ffe3Ac31C2d277790f8633E3c533450ECc53aA3","CPU":1000,"GPU":1,"RAM":33646637875,"Online":true,"ConnectedSince":1730233652619,"CountryCode":"US","Region":"NH","City":"Amsterdam","Latitude":52.3962,"Longitude":4.85338},{"ID":"0x2019607f673797366AC58F717615084Ad60164e9","CPU":0,"GPU":0,"RAM":0,"Online":true,"ConnectedSince":1730226285801,"CountryCode":"US","Region":"MO","City":"Springfield","Latitude":37.2003,"Longitude":-93.2973},{"ID":"0x20206De6485aF9f876D50Da9148FDd9c541E0407","CPU":1000,"GPU":1,"RAM":33646637875,"Online":true,"ConnectedSince":1730228431472,"CountryCode":"CA","Region":"MB","City":"Winnipeg","Latitude":49.9716,"Longitude":-97.1515},{"ID":"0x20258Bd597b277DCc300e357843D45D01c2ae778","CPU":6000,"GPU":0,"RAM":60960,"Online":false,"ConnectedSince":0,"CountryCode":"US","Region":"CA","City":"Santa Clara","Latitude":37.3541,"Longitude":-121.9552},{"ID":"0x2032bCF6C5c56fEA2f40EA38Fd752eD5ea84be4C","CPU":16000,"GPU":1,"RAM":107958707814,"Online":true,"ConnectedSince":1730221278761,"CountryCode":"NL","Region":"NH","City":"Amsterdam","Latitude":52.3962,"Longitude":4.85338},{"ID":"0x20430791986212143AbFddAcaf167815a6679bd3","CPU":0,"GPU":0,"RAM":0,"Online":false,"ConnectedSince":0,"CountryCode":"US","Region":"WY","City":"Casper","Latitude":42.8569,"Longitude":-106.299},{"ID":"0x2093E8378cc43700Bfd171b77C580bf4338702E7","CPU":1000,"GPU":1,"RAM":1024,"Online":false,"ConnectedSince":0,"CountryCode":"FI","Region":"19","City":"Turku","Latitude":60.4409,"Longitude":22.3021},{"ID":"0x20A2b5D9DF17F6Febb202a80F270FFe44011855F","CPU":6000,"GPU":1,"RAM":13412070195,"Online":false,"ConnectedSince":0,"CountryCode":"CA","Region":"MB","City":"Winnipeg","Latitude":49.9716,"Longitude":-97.1515},{"ID":"0x20c79c58d2A791a1e7e6818cDB80033DD4152c63","CPU":4000,"GPU":1,"RAM":33645799014,"Online":false,"ConnectedSince":0,"CountryCode":"US","Region":"CA","City":"San Diego","Latitude":32.8382,"Longitude":-117.133},{"ID":"0x20DC029f2FAcac06b56C7b02124312D38ce86D2e","CPU":102000,"GPU":1,"RAM":432410627276,"Online":true,"ConnectedSince":1730213237579,"CountryCode":"AT","Region":"NH","City":"Amsterdam","Latitude":52.3962,"Longitude":4.85338},{"ID":"0x211df7f0E8a2998722B5D6B06dBC3936B888E367","CPU":0,"GPU":0,"RAM":0,"Online":true,"ConnectedSince":1730227262121,"CountryCode":"US","Region":"MO","City":"Springfield","Latitude":37.1661,"Longitude":-93.2458},{"ID":"0x21474Ab6dCb2A2b6F28C12048ac0360D1a2dF1Ab","CPU":0,"GPU":0,"RAM":0,"Online":true,"ConnectedSince":1730234777469,"CountryCode":"US","Region":"MO","City":"Springfield","Latitude":37.1661,"Longitude":-93.2458},{"ID":"0x2150B92387Fd975Cd4C32Cfab0D672C29ab2c685","CPU":9000,"GPU":1,"RAM":13414236160,"Online":true,"ConnectedSince":1730171829681,"CountryCode":"US","Region":"LA","City":"Monroe","Latitude":32.5891,"Longitude":-92.0664},{"ID":"0x2163D440ba872a9eec4635726375CEba9817DfD9","CPU":2000,"GPU":1,"RAM":2048,"Online":false,"ConnectedSince":0,"CountryCode":"CN","Region":"BJ","City":"Beijing","Latitude":39.9042,"Longitude":116.407},{"ID":"0x217c4355846A1522889960f9D704CD5Bec3bE87b","CPU":1000,"GPU":1,"RAM":1024,"Online":false,"ConnectedSince":0,"CountryCode":"US","Region":"WA","City":"Seattle","Latitude":47.6034,"Longitude":-122.3414},{"ID":"0x218CcDe1892Bc7fCf27b5C000520939F7fCEe120","CPU":0,"GPU":0,"RAM":0,"Online":true,"ConnectedSince":1730234971445,"CountryCode":"US","Region":"CA","City":"Los Angeles","Latitude":34.0549,"Longitude":-118.243},{"ID":"0x21A424B8064bE51D2a33D8C05ea7aC2cFe3adF85","CPU":25000,"GPU":1,"RAM":432435498188,"Online":true,"ConnectedSince":1730206600388,"CountryCode":"NL","Region":"NH","City":"Amsterdam","Latitude":52.3962,"Longitude":4.85338},{"ID":"0x21A811E7Ac280dFA4D5461E55F53c095237610BD","CPU":9000,"GPU":1,"RAM":13411234611,"Online":false,"ConnectedSince":0,"CountryCode":"US","Region":"MO","City":"Springfield","Latitude":37.1661,"Longitude":-93.2458},{"ID":"0x21b07953A5e5313f9575F1D7966Ca573d1A5497e","CPU":9000,"GPU":1,"RAM":13411234611,"Online":false,"ConnectedSince":0,"CountryCode":"US","Region":"MO","City":"Springfield","Latitude":37.1661,"Longitude":-93.2458},{"ID":"0x21B322dC3c9298eE9BEEE534126861ddA5F535fC","CPU":25000,"GPU":1,"RAM":107361242316,"Online":true,"ConnectedSince":1730171197341,"CountryCode":"RO","Region":"","City":"","Latitude":0,"Longitude":0},{"ID":"0x21B8ac688183a96834eF2B001021094c0d62Ef05","CPU":1000,"GPU":1,"RAM":1024,"Online":false,"ConnectedSince":0,"CountryCode":"US","Region":"","City":"","Latitude":0,"Longitude":0},{"ID":"0x21d01E057967fCeB06Cc320246E0626bCe69140D","CPU":1000,"GPU":0,"RAM":1024,"Online":false,"ConnectedSince":0,"CountryCode":"US","Region":"CA","City":"Santa Monica","Latitude":34.0271,"Longitude":-118.5035},{"ID":"0x21d226526BA4B2DD851AcA8cCD522b037baaF2C3","CPU":1000,"GPU":1,"RAM":1024,"Online":false,"ConnectedSince":0,"CountryCode":"NL","Region":"NH","City":"Amsterdam","Latitude":52.3962,"Longitude":4.85338},{"ID":"0x220Ce48389ee51421FdDebC528b2B60234AfD401","CPU":9000,"GPU":1,"RAM":13414232883,"Online":true,"ConnectedSince":1730167238554,"CountryCode":"US","Region":"CA","City":"Los Angeles","Latitude":34.0549,"Longitude":-118.243},{"ID":"0x22675613539CBf368A187cB97E333451B68f560a","CPU":1000,"GPU":1,"RAM":1024,"Online":false,"ConnectedSince":0,"CountryCode":"CN","Region":"JX","City":"Nanchang","Latitude":28.682,"Longitude":115.858},{"ID":"0x226eFf534b50bC57046f99495F146304389d950D","CPU":1000,"GPU":1,"RAM":1024,"Online":false,"ConnectedSince":0,"CountryCode":"FI","Region":"19","City":"Turku","Latitude":60.4409,"Longitude":22.3021},{"ID":"0x227F12b773cbCB66DC49C5F323342C3Dc3E90c9C","CPU":6000,"GPU":1,"RAM":53841903616,"Online":true,"ConnectedSince":1730225553813,"CountryCode":"NL","Region":"NH","City":"Amsterdam","Latitude":52.3962,"Longitude":4.85338},{"ID":"0x228822581CB5A26F89a2aBBDFEb9ac1A635316a1","CPU":51000,"GPU":1,"RAM":432286475878,"Online":true,"ConnectedSince":1730217596428,"CountryCode":"CH","Region":"","City":"","Latitude":0,"Longitude":0},{"ID":"0x229575FAb6E1aC3da8c4989C8f0675714D61C773","CPU":6000,"GPU":1,"RAM":13412066918,"Online":false,"ConnectedSince":0,"CountryCode":"US","Region":"MO","City":"Springfield","Latitude":37.2003,"Longitude":-93.2973},{"ID":"0x229F30C38Ead0D67cb5C66399671aeb83e9c03C5","CPU":1000,"GPU":1,"RAM":42102348185,"Online":false,"ConnectedSince":0,"CountryCode":"US","Region":"9","City":"Vienna","Latitude":48.2049,"Longitude":16.3662},{"ID":"0x22b0528C55837Fdf9Ca61fbA9B1487591080bcd6","CPU":9000,"GPU":1,"RAM":13411231334,"Online":false,"ConnectedSince":0,"CountryCode":"US","Region":"MO","City":"Springfield","Latitude":37.1661,"Longitude":-93.2458},{"ID":"0x22ca267fc67998EDdCDD199eFCB9ff8E53f53cB3","CPU":6000,"GPU":1,"RAM":6592603750,"Online":true,"ConnectedSince":1730228477671,"CountryCode":"CA","Region":"BC","City":"Surrey","Latitude":49.0823,"Longitude":-122.771},{"ID":"0x233e54ADd565C201f07c52E774c4D3f74BCDe2C4","CPU":1000,"GPU":1,"RAM":33646637875,"Online":true,"ConnectedSince":1730234869813,"CountryCode":"US","Region":"LA","City":"Monroe","Latitude":32.5891,"Longitude":-92.0664},{"ID":"0x235CE741ba6cdFc628D6dD46F2d247aD24d65029","CPU":9000,"GPU":1,"RAM":13414236160,"Online":true,"ConnectedSince":1730220871998,"CountryCode":"US","Region":"LA","City":"Monroe","Latitude":32.5891,"Longitude":-92.0664},{"ID":"0x235D88913b56b3C6FBB69F679c38d5F35fc662d7","CPU":25000,"GPU":1,"RAM":432435485081,"Online":true,"ConnectedSince":1730193147998,"CountryCode":"NL","Region":"","City":"","Latitude":0,"Longitude":0},{"ID":"0x23B6c3BaBa1e64fe42ebF9977cfdaf55864f55A5","CPU":16000,"GPU":1,"RAM":53839485337,"Online":true,"ConnectedSince":1730148616777,"CountryCode":"NL","Region":"NH","City":"Amsterdam","Latitude":52.3962,"Longitude":4.85338},{"ID":"0x23c62a385884E2Df8bFD03BDd2C6d0b30EF17750","CPU":25000,"GPU":1,"RAM":53866846617,"Online":true,"ConnectedSince":1730219425195,"CountryCode":"VN","Region":"","City":"","Latitude":0,"Longitude":0},{"ID":"0x23cE39BF9c7c2Ab03A0a0c704ef83660A77d51cc","CPU":102000,"GPU":1,"RAM":432410594508,"Online":true,"ConnectedSince":1730213398026,"CountryCode":"AT","Region":"","City":"","Latitude":0,"Longitude":0},{"ID":"0x23CF7047f2d35ae3fb5e1A05C7f75BDac555341F","CPU":9000,"GPU":1,"RAM":13411234611,"Online":false,"ConnectedSince":0,"CountryCode":"US","Region":"MO","City":"Springfield","Latitude":37.1661,"Longitude":-93.2458},{"ID":"0x23d9a44dCF7b85170B9e361588f89662227c78d8","CPU":6000,"GPU":1,"RAM":13412070195,"Online":false,"ConnectedSince":0,"CountryCode":"US","Region":"MO","City":"Springfield","Latitude":37.2003,"Longitude":-93.2973},{"ID":"0x23F4F85b0f44a51acd61546015a3005a34001dC6","CPU":9000,"GPU":0,"RAM":27487790694,"Online":false,"ConnectedSince":0,"CountryCode":"HK","Region":"","City":"Hong Kong","Latitude":22.3193,"Longitude":114.169},{"ID":"0x2432568a4d9FfCa10F156F39c738CB85Ce64A300","CPU":6000,"GPU":1,"RAM":53888906035,"Online":true,"ConnectedSince":1730212449538,"CountryCode":"IS","Region":"1","City":"Reykjavik","Latitude":64.1336,"Longitude":-21.8934},{"ID":"0x24608C04EA2Da4651b9f237945D7E53dC1f53c38","CPU":1000,"GPU":0,"RAM":3285001830,"Online":true,"ConnectedSince":1730186558370,"CountryCode":"RU","Region":"","City":"","Latitude":0,"Longitude":0},{"ID":"0x2463772498e8555D8a43263c9445422b8e32b790","CPU":19000,"GPU":4,"RAM":108052276838,"Online":true,"ConnectedSince":1730172860480,"CountryCode":"US","Region":"","City":"","Latitude":0,"Longitude":0},{"ID":"0x24a1b7b70024d3E43670a9F4A15Db1b04e5D80a3","CPU":0,"GPU":0,"RAM":0,"Online":true,"ConnectedSince":1730234070247,"CountryCode":"US","Region":"MO","City":"Springfield","Latitude":37.1661,"Longitude":-93.2458},{"ID":"0x24A3259454521ad613424779B3FC6e9444e52785","CPU":6000,"GPU":1,"RAM":53888909312,"Online":true,"ConnectedSince":1730196662725,"CountryCode":"IS","Region":"1","City":"Reykjavik","Latitude":64.1336,"Longitude":-21.8934},{"ID":"0x24bd76Fb8cfA7E36608732B3549067262D5384eE","CPU":6000,"GPU":1,"RAM":13412066918,"Online":false,"ConnectedSince":0,"CountryCode":"US","Region":"MO","City":"Springfield","Latitude":37.2003,"Longitude":-93.2973},{"ID":"0x24c3b22cf7bc67D56a24239f4D913769a5295d8f","CPU":6000,"GPU":1,"RAM":13412066918,"Online":false,"ConnectedSince":0,"CountryCode":"US","Region":"MD","City":"Hagerstown","Latitude":39.6424,"Longitude":-77.7301},{"ID":"0x24Cd9638c2B99DF61C21b8bAB869F91baDa3A681","CPU":25000,"GPU":1,"RAM":432435485081,"Online":true,"ConnectedSince":1730193157252,"CountryCode":"NL","Region":"","City":"","Latitude":0,"Longitude":0},{"ID":"0x24E84aD0CAd3a3c3BB978544ff9eD226773281b4","CPU":9000,"GPU":1,"RAM":26802651136,"Online":false,"ConnectedSince":0,"CountryCode":"CN","Region":"SC","City":"Chengdu","Latitude":30.6498,"Longitude":104.0555},{"ID":"0x24fBc22f5276B8C921BBD7bD3A3aCB857A5B09f4","CPU":1000,"GPU":1,"RAM":33646637875,"Online":true,"ConnectedSince":1730232985374,"CountryCode":"CA","Region":"9","City":"Vienna","Latitude":48.2049,"Longitude":16.3662},{"ID":"0x25473A788a4A389382399D0b554223AE11Fea874","CPU":6000,"GPU":1,"RAM":53888915865,"Online":true,"ConnectedSince":1730196898333,"CountryCode":"IS","Region":"1","City":"Reykjavik","Latitude":64.1336,"Longitude":-21.8934},{"ID":"0x254Bb1B9C5152F768360784ed06Fe6eE4A1A512b","CPU":2000,"GPU":1,"RAM":2048,"Online":false,"ConnectedSince":0,"CountryCode":"CN","Region":"GD","City":"Guangzhou","Latitude":23.1317,"Longitude":113.266},{"ID":"0x255C18A5B90C8c1A2B930920D412002AE848d827","CPU":16000,"GPU":1,"RAM":107959962828,"Online":false,"ConnectedSince":0,"CountryCode":"NL","Region":"NH","City":"Amsterdam","Latitude":52.3907,"Longitude":4.8637},{"ID":"0x255fb890C370921b50AE703E50Fb67ED28dF0c86","CPU":204000,"GPU":1,"RAM":107936864665,"Online":false,"ConnectedSince":0,"CountryCode":"FR","Region":"","City":"","Latitude":0,"Longitude":0},{"ID":"0x258ffD141132faa7dFab436403eC9e81Dbed99eA","CPU":1000,"GPU":0,"RAM":3285001830,"Online":true,"ConnectedSince":1730172951955,"CountryCode":"FI","Region":"18","City":"Helsinki","Latitude":60.1797,"Longitude":24.9344},{"ID":"0x259012c0B07a0DD92318D4025e2be9A21f9C5F48","CPU":9000,"GPU":1,"RAM":13411234611,"Online":false,"ConnectedSince":0,"CountryCode":"US","Region":"MO","City":"Springfield","Latitude":37.1661,"Longitude":-93.2458},{"ID":"0x25a0C32014fC5006364FAdaF8FA830Fa71764Aea","CPU":1000,"GPU":1,"RAM":1024,"Online":false,"ConnectedSince":0,"CountryCode":"CN","Region":"HN","City":"Qingyuan","Latitude":28.1142,"Longitude":112.983},{"ID":"0x25b7D684DD7Eea1D467840A97c20b4191e236Bdf","CPU":1000,"GPU":1,"RAM":1024,"Online":true,"ConnectedSince":1730235056979,"CountryCode":"NL","Region":"NH","City":"Amsterdam","Latitude":52.3962,"Longitude":4.85338},{"ID":"0x25bccCE7aAA33f744864D28ce3395D29be3d5e3e","CPU":6000,"GPU":1,"RAM":53888925696,"Online":true,"ConnectedSince":1730196462529,"CountryCode":"IS","Region":"1","City":"Reykjavik","Latitude":64.1336,"Longitude":-21.8934},{"ID":"0x25bD9C3a01C0084232e04F001D2C98217574FC62","CPU":1000,"GPU":1,"RAM":1024,"Online":false,"ConnectedSince":0,"CountryCode":"US","Region":"CA","City":"Los Angeles","Latitude":34.0522,"Longitude":-118.244},{"ID":"0x25C4807DacE37F21B0950dCb413F3352AD728545","CPU":6000,"GPU":1,"RAM":13412070195,"Online":false,"ConnectedSince":0,"CountryCode":"US","Region":"MO","City":"Springfield","Latitude":37.2003,"Longitude":-93.2973},{"ID":"0x2617787Fa1259084B858f14A69f1C049291F7c57","CPU":2000,"GPU":1,"RAM":2048,"Online":false,"ConnectedSince":0,"CountryCode":"CN","Region":"GD","City":"Guangzhou","Latitude":23.1317,"Longitude":113.266},{"ID":"0x2628766808A4d37D1E78994dC61c5de4dDcDa116","CPU":6000,"GPU":1,"RAM":13412066918,"Online":false,"ConnectedSince":0,"CountryCode":"US","Region":"MD","City":"Hagerstown","Latitude":39.6424,"Longitude":-77.7301},{"ID":"0x263b0F51505cAdcd7893B3ee98803D44d2899469","CPU":16000,"GPU":1,"RAM":53843401113,"Online":true,"ConnectedSince":1730223067933,"CountryCode":"NL","Region":"NH","City":"Amsterdam","Latitude":52.3962,"Longitude":4.85338},{"ID":"0x265212c705560Fd2685C6E4f5483De8cb71d0F72","CPU":0,"GPU":0,"RAM":0,"Online":true,"ConnectedSince":1730235042107,"CountryCode":"US","Region":"","City":"","Latitude":0,"Longitude":0},{"ID":"0x265C229e3Bc0AE81543BD4652CC8a0465b7AdB28","CPU":25000,"GPU":1,"RAM":107357654220,"Online":false,"ConnectedSince":0,"CountryCode":"RO","Region":"","City":"","Latitude":0,"Longitude":0},{"ID":"0x266d648F548826733e951595c774a4ca9555a8C9","CPU":1000,"GPU":0,"RAM":1024,"Online":false,"ConnectedSince":0,"CountryCode":"US","Region":"MO","City":"St Louis","Latitude":38.4539,"Longitude":-90.328},{"ID":"0x2678592344c6a0A367CCc9bF5Ee0aAf3B05b7Cee","CPU":102000,"GPU":1,"RAM":432410630553,"Online":false,"ConnectedSince":0,"CountryCode":"AT","Region":"","City":"","Latitude":0,"Longitude":0},{"ID":"0x269D7803C62d6a2B364Fd5d48197976B4594EF93","CPU":25000,"GPU":1,"RAM":38713776537,"Online":false,"ConnectedSince":0,"CountryCode":"US","Region":"MO","City":"Springfield","Latitude":37.1661,"Longitude":-93.2458},{"ID":"0x26eEc9B09c014294f2283d871CCD073E33EdbA1D","CPU":16000,"GPU":1,"RAM":107958697984,"Online":true,"ConnectedSince":1730224954081,"CountryCode":"NL","Region":"NH","City":"Amsterdam","Latitude":52.3962,"Longitude":4.85338},{"ID":"0x27380E44620fb33aec1D4c30B69eD1B899fA0E22","CPU":25000,"GPU":1,"RAM":432435485081,"Online":true,"ConnectedSince":1730206277925,"CountryCode":"NL","Region":"NH","City":"Amsterdam","Latitude":52.3962,"Longitude":4.85338},{"ID":"0x2764D0622E964f1929AC46Abf5e4E7364b784cD4","CPU":6000,"GPU":1,"RAM":53888912588,"Online":false,"ConnectedSince":0,"CountryCode":"IS","Region":"","City":"","Latitude":0,"Longitude":0},{"ID":"0x27A2Eb46eD6da5f105DC6A6C2b76A9886D2a9F69","CPU":0,"GPU":0,"RAM":0,"Online":false,"ConnectedSince":0,"CountryCode":"AT","Region":"9","City":"Vienna","Latitude":48.2049,"Longitude":16.3662},{"ID":"0x27D925b370041a3e780295d6C01A4EDE177e41Bd","CPU":6000,"GPU":1,"RAM":13412066918,"Online":false,"ConnectedSince":0,"CountryCode":"US","Region":"MD","City":"Hagerstown","Latitude":39.6424,"Longitude":-77.7301},{"ID":"0x280fe4d522547886c719CC6cb924e6a7F4Da0710","CPU":0,"GPU":0,"RAM":0,"Online":false,"ConnectedSince":0,"CountryCode":"NL","Region":"NH","City":"Amsterdam","Latitude":52.3962,"Longitude":4.85338},{"ID":"0x28167226e584Ece0C953211475F8BbE213ac98c6","CPU":9000,"GPU":1,"RAM":13414232883,"Online":true,"ConnectedSince":1730218605760,"CountryCode":"US","Region":"MD","City":"Hagerstown","Latitude":39.6424,"Longitude":-77.7301},{"ID":"0x281C06E639E5809f1404eDBcE9608f054852C3a5","CPU":2000,"GPU":1,"RAM":2048,"Online":false,"ConnectedSince":0,"CountryCode":"CN","Region":"GD","City":"Guangzhou","Latitude":23.1317,"Longitude":113.266},{"ID":"0x282E8375DCE369557aC3069f5cb9549Fb1A1dc11","CPU":16000,"GPU":1,"RAM":53839485337,"Online":true,"ConnectedSince":1730220259848,"CountryCode":"NL","Region":"","City":"","Latitude":0,"Longitude":0},{"ID":"0x28421411E057F3bfFF86Babf04ff8871A701f7b3","CPU":102000,"GPU":1,"RAM":855154455347,"Online":false,"ConnectedSince":0,"CountryCode":"US","Region":"","City":"","Latitude":0,"Longitude":0},{"ID":"0x2845b5AD60DDda0610A571D3C0A97D962AbF6f0C","CPU":16000,"GPU":1,"RAM":216111208857,"Online":true,"ConnectedSince":1730234525551,"CountryCode":"NL","Region":"NH","City":"Amsterdam","Latitude":52.3961,"Longitude":4.85469},{"ID":"0x28ae2417A74D3b3cCBa6eb34ca286041a91D05F7","CPU":9000,"GPU":1,"RAM":13411231334,"Online":true,"ConnectedSince":1730153267519,"CountryCode":"US","Region":"MO","City":"Springfield","Latitude":37.1661,"Longitude":-93.2458},{"ID":"0x28b25C5e64DFB851668347c9350cEF34ed46e41a","CPU":6000,"GPU":1,"RAM":13412070195,"Online":false,"ConnectedSince":0,"CountryCode":"US","Region":"MO","City":"Springfield","Latitude":37.2003,"Longitude":-93.2973},{"ID":"0x28B6253f4919ff79Ad87B70F87eFfD81C64eCE0E","CPU":16000,"GPU":1,"RAM":53842155929,"Online":false,"ConnectedSince":0,"CountryCode":"NL","Region":"","City":"","Latitude":0,"Longitude":0},{"ID":"0x28f16E21aD3ECc0FFB136B617a8b5e92453a357d","CPU":9000,"GPU":4,"RAM":16773480448,"Online":false,"ConnectedSince":0,"CountryCode":"US","Region":"MO","City":"Springfield","Latitude":37.2003,"Longitude":-93.2973},{"ID":"0x2905f9977aaD00Dc6ECCc90C5a76DdB6D59952e8","CPU":1000,"GPU":1,"RAM":1024,"Online":false,"ConnectedSince":0,"CountryCode":"US","Region":"MO","City":"St Louis","Latitude":38.4539,"Longitude":-90.328},{"ID":"0x290975987dEFe689Ce09DE6D206C403CD24fb91C","CPU":16000,"GPU":1,"RAM":53839485337,"Online":false,"ConnectedSince":0,"CountryCode":"NL","Region":"NH","City":"Amsterdam","Latitude":52.3962,"Longitude":4.85338},{"ID":"0x291D52459C6f2f67cF2c3c9977e039deA9207ed9","CPU":1000,"GPU":1,"RAM":1024,"Online":false,"ConnectedSince":0,"CountryCode":"US","Region":"TX","City":"Austin","Latitude":30.2661,"Longitude":-97.7136},{"ID":"0x293cC4f07F00EB7Cc348E0666082f2442e858901","CPU":9000,"GPU":1,"RAM":13411234611,"Online":false,"ConnectedSince":0,"CountryCode":"US","Region":"MO","City":"Springfield","Latitude":37.1661,"Longitude":-93.2458},{"ID":"0x294828B5Ad20dfce5317aad0DA4938E5D31bea42","CPU":0,"GPU":0,"RAM":0,"Online":true,"ConnectedSince":1730234544520,"CountryCode":"US","Region":"CA","City":"Los Angeles","Latitude":34.0549,"Longitude":-118.243},{"ID":"0x2956A1A03f710e2272b30D067962D882644c19f8","CPU":16000,"GPU":1,"RAM":53839196979,"Online":true,"ConnectedSince":1730218585890,"CountryCode":"NL","Region":"NH","City":"Amsterdam","Latitude":52.3962,"Longitude":4.85338},{"ID":"0x2965739CFCB2D10b6B039bfF0b07b100876f2700","CPU":25000,"GPU":1,"RAM":107389586636,"Online":false,"ConnectedSince":0,"CountryCode":"RO","Region":"CJ","City":"Cluj-Napoca","Latitude":46.7758,"Longitude":23.601},{"ID":"0x29992321D5196E907Dd07A161b0Cfb6d27f00275","CPU":1000,"GPU":1,"RAM":1024,"Online":false,"ConnectedSince":0,"CountryCode":"GB","Region":"ENG","City":"Whitechapel","Latitude":51.5026,"Longitude":-0.0668},{"ID":"0x29a63969883ca76445ad0799aE78429EE6cE8703","CPU":1000,"GPU":0,"RAM":1024,"Online":false,"ConnectedSince":0,"CountryCode":"US","Region":"","City":"","Latitude":0,"Longitude":0},{"ID":"0x29AFe9642aAE89A228C4B370fa9711A68414B681","CPU":33000,"GPU":1,"RAM":35327492096,"Online":false,"ConnectedSince":0,"CountryCode":"US","Region":"MO","City":"Springfield","Latitude":37.1661,"Longitude":-93.2458},{"ID":"0x29bcDAefb47e4559640EE729988FC93b84F20035","CPU":0,"GPU":0,"RAM":0,"Online":false,"ConnectedSince":0,"CountryCode":"AT","Region":"9","City":"Vienna","Latitude":48.2049,"Longitude":16.3662},{"ID":"0x29c621656b45862797eFE26F355B16f2f6B53837","CPU":6000,"GPU":1,"RAM":13412070195,"Online":false,"ConnectedSince":0,"CountryCode":"US","Region":"MO","City":"Springfield","Latitude":37.2003,"Longitude":-93.2973},{"ID":"0x29d4E95372345F89eA43965caf5B6145C47Bbdac","CPU":6000,"GPU":1,"RAM":53888912588,"Online":true,"ConnectedSince":1730196790267,"CountryCode":"IS","Region":"1","City":"Reykjavik","Latitude":64.1336,"Longitude":-21.8934},{"ID":"0x29D7f1c240351fcf89C42C2dDC7855b0Ba5ff70f","CPU":4000,"GPU":1,"RAM":4096,"Online":false,"ConnectedSince":0,"CountryCode":"CN","Region":"HN","City":"Langli","Latitude":28.1822,"Longitude":113.1051},{"ID":"0x29FA040bB473a2Ec9df0AF67d7f82D86D58ECd96","CPU":6000,"GPU":1,"RAM":53888932249,"Online":true,"ConnectedSince":1730229222858,"CountryCode":"IS","Region":"1","City":"Reykjavik","Latitude":64.1336,"Longitude":-21.8934},{"ID":"0x2a0fe6Cba753D99185f8394c40f19F5faB936dFd","CPU":0,"GPU":0,"RAM":0,"Online":true,"ConnectedSince":1730234749372,"CountryCode":"US","Region":"","City":"","Latitude":0,"Longitude":0},{"ID":"0x2a13f79bF85d6929C0DB8C2f0F53836813112De9","CPU":0,"GPU":0,"RAM":0,"Online":true,"ConnectedSince":1730234222781,"CountryCode":"US","Region":"","City":"","Latitude":0,"Longitude":0},{"ID":"0x2A1c9d762AdfD1110Ae32E22c0498cc9C152f514","CPU":2000,"GPU":1,"RAM":2048,"Online":false,"ConnectedSince":0,"CountryCode":"CN","Region":"GD","City":"Guangzhou","Latitude":23.1317,"Longitude":113.266},{"ID":"0x2A1Fbb2d39b2B6FAe299b629486D55bd68e110d3","CPU":16000,"GPU":1,"RAM":53839482060,"Online":false,"ConnectedSince":0,"CountryCode":"NL","Region":"NH","City":"Amsterdam","Latitude":52.3962,"Longitude":4.85338},{"ID":"0x2A484B3574Efd4F00b40c42a3F387aa84ae7AE69","CPU":12000,"GPU":1,"RAM":26854611353,"Online":true,"ConnectedSince":1730227367836,"CountryCode":"US","Region":"TX","City":"Austin","Latitude":30.2661,"Longitude":-97.7136},{"ID":"0x2A8aF8891988873C0a32C817B6f358a57E61e716","CPU":1000,"GPU":0,"RAM":3285001830,"Online":true,"ConnectedSince":1730186552456,"CountryCode":"DE","Region":"HE","City":"Frankfurt am Main","Latitude":50.1187,"Longitude":8.6842},{"ID":"0x2A8c3b009d8c384A4f691B0ceaDA8A5B8Db69A8F","CPU":0,"GPU":0,"RAM":0,"Online":false,"ConnectedSince":0,"CountryCode":"US","Region":"LA","City":"Monroe","Latitude":32.5891,"Longitude":-92.0664},{"ID":"0x2AB6673598866FA709DCa8f472D53Bd5937ff166","CPU":1000,"GPU":1,"RAM":1024,"Online":false,"ConnectedSince":0,"CountryCode":"CN","Region":"JX","City":"Nanchang","Latitude":28.6829,"Longitude":115.858},{"ID":"0x2abA393863dB202272e3D194509aC81E1539ce5B","CPU":0,"GPU":0,"RAM":0,"Online":true,"ConnectedSince":1730232888905,"CountryCode":"US","Region":"","City":"","Latitude":0,"Longitude":0},{"ID":"0x2aC9E63080F5EE4c0228907DE6f757dc12A2C81C","CPU":22000,"GPU":1,"RAM":53840422502,"Online":false,"ConnectedSince":0,"CountryCode":"NL","Region":"NH","City":"Amsterdam","Latitude":52.3962,"Longitude":4.85338},{"ID":"0x2aD4c749bff6503f23c9270EA40C4a66592AA736","CPU":1000,"GPU":1,"RAM":1024,"Online":false,"ConnectedSince":0,"CountryCode":"CN","Region":"JX","City":"Nanchang","Latitude":28.6829,"Longitude":115.858},{"ID":"0x2af41F11A2c8Af4eE626bC3833faAA593e3bAb8A","CPU":9000,"GPU":1,"RAM":15082238771,"Online":true,"ConnectedSince":1730136686566,"CountryCode":"US","Region":"","City":"","Latitude":0,"Longitude":0},{"ID":"0x2affeaE76d4e31eC91fA08Ea42ad228cD5C4680E","CPU":1000,"GPU":0,"RAM":1650717491,"Online":false,"ConnectedSince":0,"CountryCode":"CZ","Region":"","City":"","Latitude":0,"Longitude":0},{"ID":"0x2B0a77DB200B1e39e3D44dB55FAeE34C275C9A60","CPU":1000,"GPU":0,"RAM":1024,"Online":false,"ConnectedSince":0,"CountryCode":"US","Region":"","City":"","Latitude":0,"Longitude":0},{"ID":"0x2b197A24512C305F530E4b9372d34F2a5374B5EF","CPU":22000,"GPU":1,"RAM":53840422502,"Online":false,"ConnectedSince":0,"CountryCode":"NL","Region":"NH","City":"Amsterdam","Latitude":52.3962,"Longitude":4.85338},{"ID":"0x2b213aC73624DCf7f28952694B0f128c5Fe67222","CPU":4000,"GPU":1,"RAM":33645799014,"Online":false,"ConnectedSince":0,"CountryCode":"US","Region":"CA","City":"San Diego","Latitude":32.8382,"Longitude":-117.133},{"ID":"0x2B58f8402E206ec7A4384F2055BD5848974891B7","CPU":0,"GPU":0,"RAM":0,"Online":false,"ConnectedSince":0,"CountryCode":"US","Region":"MD","City":"Hagerstown","Latitude":39.6424,"Longitude":-77.7301},{"ID":"0x2b5D41354832638a33ba301D5d9905320423e239","CPU":1000,"GPU":1,"RAM":1024,"Online":false,"ConnectedSince":0,"CountryCode":"US","Region":"TX","City":"Austin","Latitude":30.2661,"Longitude":-97.7136},{"ID":"0x2b69A2c0b33C2dfC252a606f7B3593E571c7aB02","CPU":6000,"GPU":1,"RAM":13412070195,"Online":false,"ConnectedSince":0,"CountryCode":"US","Region":"MO","City":"Springfield","Latitude":37.2003,"Longitude":-93.2973},{"ID":"0x2b7bF82445bce9f58A07ff3b681fF9381CE93F4D","CPU":64000,"GPU":1,"RAM":26797015040,"Online":true,"ConnectedSince":1730186554852,"CountryCode":"CN","Region":"","City":"","Latitude":0,"Longitude":0},{"ID":"0x2BA09F79F891Bc7248D313Ef0919546A741d1A8D","CPU":1000,"GPU":0,"RAM":1024,"Online":false,"ConnectedSince":0,"CountryCode":"US","Region":"MO","City":"St Louis","Latitude":38.4539,"Longitude":-90.328},{"ID":"0x2bA19d1c105a487406Bd6531Fb42625B58F7A1DC","CPU":2000,"GPU":1,"RAM":2048,"Online":false,"ConnectedSince":0,"CountryCode":"CN","Region":"GD","City":"Guangzhou","Latitude":23.1317,"Longitude":113.266},{"ID":"0x2ba38F27eb0940c10585F253ae93e6fe9f25143E","CPU":9000,"GPU":1,"RAM":13411234611,"Online":false,"ConnectedSince":0,"CountryCode":"US","Region":"MO","City":"Springfield","Latitude":37.1661,"Longitude":-93.2458},{"ID":"0x2bcf578F2d0d82d1f65f8cE3966bfAFD7D957513","CPU":1000,"GPU":0,"RAM":1024,"Online":false,"ConnectedSince":0,"CountryCode":"US","Region":"CA","City":"Santa Monica","Latitude":34.0271,"Longitude":-118.5035},{"ID":"0x2be7Ccf5503916d165d5d9F9bA659662065f7aa5","CPU":0,"GPU":0,"RAM":0,"Online":false,"ConnectedSince":0,"CountryCode":"US","Region":"MO","City":"St Louis","Latitude":38.4539,"Longitude":-90.328},{"ID":"0x2c3cbf629e20eAad61DBC4E130e29653BF75897a","CPU":2000,"GPU":1,"RAM":2048,"Online":false,"ConnectedSince":0,"CountryCode":"CN","Region":"GD","City":"Guangzhou","Latitude":23.1317,"Longitude":113.266},{"ID":"0x2c5270f61bd9E68C7bFfCE52227572287AD3eCf7","CPU":19000,"GPU":4,"RAM":26917715968,"Online":false,"ConnectedSince":0,"CountryCode":"US","Region":"","City":"","Latitude":0,"Longitude":0},{"ID":"0x2C5Cce111182a36288357D967Caba097dEC87DB6","CPU":16000,"GPU":1,"RAM":53842146099,"Online":false,"ConnectedSince":0,"CountryCode":"NL","Region":"NH","City":"Amsterdam","Latitude":52.3962,"Longitude":4.85338},{"ID":"0x2Cb493eb10B577f1515a74c6754ECBD43322F00e","CPU":16000,"GPU":1,"RAM":26775142400,"Online":true,"ConnectedSince":1730141451655,"CountryCode":"RO","Region":"B","City":"Sector 6","Latitude":44.4542,"Longitude":26.0225},{"ID":"0x2CD7A62573Fd07B33cA9a5756b636AA4F158c60E","CPU":2000,"GPU":1,"RAM":2048,"Online":false,"ConnectedSince":0,"CountryCode":"CN","Region":"GD","City":"Guangzhou","Latitude":23.1317,"Longitude":113.266},{"ID":"0x2cDb65b2eec81c8427466cE09388c6B0B2e9B504","CPU":102000,"GPU":1,"RAM":432410627276,"Online":false,"ConnectedSince":0,"CountryCode":"AT","Region":"9","City":"Vienna","Latitude":48.2049,"Longitude":16.3662},{"ID":"0x2cE505cBC3f7f829CCf139fE657a9734626F816e","CPU":1000,"GPU":1,"RAM":1024,"Online":false,"ConnectedSince":0,"CountryCode":"US","Region":"MO","City":"St Louis","Latitude":38.4539,"Longitude":-90.328},{"ID":"0x2D101E6Ad52Dd9Eea9FCAa230b58e0b8B2D6EFf4","CPU":1000,"GPU":1,"RAM":1024,"Online":false,"ConnectedSince":0,"CountryCode":"HK","Region":"KKC","City":"Tsim Sha Tsui","Latitude":22.2944,"Longitude":114.1596},{"ID":"0x2d8c42F89A125996C2dB4f9d7B99Dfcd1DF392a6","CPU":2000,"GPU":1,"RAM":2048,"Online":false,"ConnectedSince":0,"CountryCode":"CN","Region":"GD","City":"Guangzhou","Latitude":23.1317,"Longitude":113.266},{"ID":"0x2DA996e34FD3318821962E057733C79244394A92","CPU":16000,"GPU":1,"RAM":53842146099,"Online":false,"ConnectedSince":0,"CountryCode":"NL","Region":"NH","City":"Amsterdam","Latitude":52.3962,"Longitude":4.85338},{"ID":"0x2DB36692a91954465498561252dD8C1493f59C8f","CPU":1000,"GPU":1,"RAM":1024,"Online":false,"ConnectedSince":0,"CountryCode":"NL","Region":"NH","City":"Amsterdam","Latitude":52.3962,"Longitude":4.85338},{"ID":"0x2ddd78c35040A5b4D2dCb58DE022d1d5bF053e4f","CPU":6000,"GPU":1,"RAM":53888909312,"Online":true,"ConnectedSince":1730196633309,"CountryCode":"IS","Region":"1","City":"Reykjavik","Latitude":64.1336,"Longitude":-21.8934},{"ID":"0x2dE3a4aCA2a67022bc36DFC505Bdcc91fc5cac06","CPU":0,"GPU":0,"RAM":0,"Online":false,"ConnectedSince":0,"CountryCode":"RO","Region":"PH","City":"Ploieşti","Latitude":44.9467,"Longitude":26.0135},{"ID":"0x2e0B57Cd92EAb20e4CaC80c3367dD6a6bABcDCeF","CPU":0,"GPU":0,"RAM":0,"Online":true,"ConnectedSince":1730234768136,"CountryCode":"US","Region":"LA","City":"Monroe","Latitude":32.5891,"Longitude":-92.0664},{"ID":"0x2e1e5c670024E8B60b0DBde06d3C9Eb6be427148","CPU":1000,"GPU":1,"RAM":33646637875,"Online":true,"ConnectedSince":1730219278676,"CountryCode":"US","Region":"NH","City":"Amsterdam","Latitude":52.3962,"Longitude":4.85338},{"ID":"0x2e24464B225DC4a9137C6Ef585f333aDf667ACbf","CPU":6000,"GPU":1,"RAM":13412070195,"Online":true,"ConnectedSince":1729189818929,"CountryCode":"US","Region":"MO","City":"Springfield","Latitude":37.2003,"Longitude":-93.2973},{"ID":"0x2E2d1C945854317C317540C3Cf60EFdC1f063Bd1","CPU":1000,"GPU":1,"RAM":33646637875,"Online":true,"ConnectedSince":1730217641155,"CountryCode":"GB","Region":"9","City":"Vienna","Latitude":48.2049,"Longitude":16.3662},{"ID":"0x2E43a8F2214A53E7C63fE4BD6911Bc982D1E009B","CPU":25000,"GPU":1,"RAM":107383901388,"Online":true,"ConnectedSince":1730171228373,"CountryCode":"RO","Region":"","City":"","Latitude":0,"Longitude":0},{"ID":"0x2E5aC18eBB96ea0c32A5b9cB65D9b0029fa7a7FA","CPU":16000,"GPU":1,"RAM":107959969382,"Online":true,"ConnectedSince":1730231556432,"CountryCode":"NL","Region":"NH","City":"Amsterdam","Latitude":52.3961,"Longitude":4.85469},{"ID":"0x2e62768585551C1487C92CF89400ec57B4d585d2","CPU":102000,"GPU":1,"RAM":432410624000,"Online":false,"ConnectedSince":0,"CountryCode":"NL","Region":"NH","City":"Amsterdam","Latitude":52.3962,"Longitude":4.85338},{"ID":"0x2e988323f1f581403629fC8aB4f52f86D6454f1D","CPU":1000,"GPU":1,"RAM":1024,"Online":false,"ConnectedSince":0,"CountryCode":"CN","Region":"JX","City":"Nanchang","Latitude":28.6829,"Longitude":115.858},{"ID":"0x2e9f3f8742F2f51e397f479a41F7B8392D30bb4a","CPU":1000,"GPU":1,"RAM":33646637875,"Online":true,"ConnectedSince":1730189291081,"CountryCode":"CA","Region":"MB","City":"Winnipeg","Latitude":49.9716,"Longitude":-97.1515},{"ID":"0x2eE58c2cD2555C28c058e47C5467FF56D27151c5","CPU":0,"GPU":0,"RAM":0,"Online":true,"ConnectedSince":1730234311212,"CountryCode":"US","Region":"MO","City":"Springfield","Latitude":37.2003,"Longitude":-93.2973},{"ID":"0x2f34C9BA2566C7C3B81fea2BAb06c1cA7467658C","CPU":25000,"GPU":1,"RAM":107357650944,"Online":false,"ConnectedSince":0,"CountryCode":"RO","Region":"CJ","City":"Cluj-Napoca","Latitude":46.7758,"Longitude":23.601},{"ID":"0x2F413505336352657412a4649619073df2CDA06C","CPU":19000,"GPU":5,"RAM":53935724953,"Online":true,"ConnectedSince":1730230145924,"CountryCode":"EE","Region":"37","City":"Tallinn","Latitude":59.4381,"Longitude":24.7369},{"ID":"0x2F5D55A846A93a82b2215924a6264B82ea25883d","CPU":6000,"GPU":1,"RAM":13412066918,"Online":false,"ConnectedSince":0,"CountryCode":"US","Region":"MD","City":"Hagerstown","Latitude":39.6424,"Longitude":-77.7301},{"ID":"0x2F7C8CDE21864fbB37Dd94d127401d30f7E521A0","CPU":6000,"GPU":1,"RAM":53888899481,"Online":true,"ConnectedSince":1730196500539,"CountryCode":"IS","Region":"1","City":"Reykjavik","Latitude":64.1336,"Longitude":-21.8934},{"ID":"0x2f83332FcF0E0509F6a3b9FA5Cd2Bd98D19F85A6","CPU":1000,"GPU":1,"RAM":33646637875,"Online":true,"ConnectedSince":1730229375148,"CountryCode":"GB","Region":"9","City":"Vienna","Latitude":48.2049,"Longitude":16.3662},{"ID":"0x2f8e2B12fbF793564ba0EB70B5a8f1a452EC191f","CPU":25000,"GPU":1,"RAM":107988294041,"Online":true,"ConnectedSince":1730211994279,"CountryCode":"NL","Region":"","City":"","Latitude":0,"Longitude":0},{"ID":"0x2F94e3Cb8B158644Daed0686bbd67A0f6E6b485f","CPU":2000,"GPU":1,"RAM":2048,"Online":false,"ConnectedSince":0,"CountryCode":"CN","Region":"GD","City":"Guangzhou","Latitude":23.1317,"Longitude":113.266},{"ID":"0x2Fbb538cDF7CDa6c8f9c59E2D5847aef0D481f47","CPU":16000,"GPU":1,"RAM":53839482060,"Online":true,"ConnectedSince":1730185652217,"CountryCode":"NL","Region":"NH","City":"Amsterdam","Latitude":52.3962,"Longitude":4.85338},{"ID":"0x2Fd7B96b9e40A87ce60c831EAa176Db4b5397A6D","CPU":9000,"GPU":1,"RAM":13411231334,"Online":true,"ConnectedSince":1730221234598,"CountryCode":"US","Region":"","City":"","Latitude":0,"Longitude":0},{"ID":"0x300554991ca2fDC933a7D2A5a81b38BDcb983F22","CPU":16000,"GPU":1,"RAM":107958707814,"Online":true,"ConnectedSince":1730221320044,"CountryCode":"NL","Region":"NH","City":"Amsterdam","Latitude":52.3962,"Longitude":4.85338},{"ID":"0x307860f9382776D8886F3Bf275F5211Fe0076b76","CPU":1000,"GPU":1,"RAM":1024,"Online":false,"ConnectedSince":0,"CountryCode":"DE","Region":"BW","City":"Karlsruhe","Latitude":48.9751,"Longitude":8.4456},{"ID":"0x307c6b11E211526Db821801a925D5DFcD91a42e8","CPU":16000,"GPU":1,"RAM":53839196979,"Online":true,"ConnectedSince":1730224826305,"CountryCode":"NL","Region":"NH","City":"Amsterdam","Latitude":52.3962,"Longitude":4.85338},{"ID":"0x308b5b302E9AD3b18d5Dd250b167F31275e0efda","CPU":9000,"GPU":4,"RAM":16773480448,"Online":true,"ConnectedSince":1730232892338,"CountryCode":"US","Region":"MO","City":"Springfield","Latitude":37.2003,"Longitude":-93.2973},{"ID":"0x3094EaCef86021478df57Fe07D90ce7BEF028fF3","CPU":4000,"GPU":1,"RAM":33645799014,"Online":false,"ConnectedSince":0,"CountryCode":"US","Region":"","City":"","Latitude":0,"Longitude":0},{"ID":"0x309Ff19349A8F676c3b3B0790e5c1879Bc1B8d29","CPU":25000,"GPU":1,"RAM":26590058905,"Online":true,"ConnectedSince":1730233886258,"CountryCode":"KR","Region":"11","City":"Dongjak-gu","Latitude":37.5192,"Longitude":126.9177},{"ID":"0x30C7A4843017f0b319C84111c53c5A3fF7D7397f","CPU":16000,"GPU":1,"RAM":53842142822,"Online":false,"ConnectedSince":0,"CountryCode":"NL","Region":"NH","City":"Amsterdam","Latitude":52.3962,"Longitude":4.85338},{"ID":"0x30c7EE508A1B7Ea79C2338377e0D325a3Fe6074f","CPU":6000,"GPU":1,"RAM":53841903616,"Online":false,"ConnectedSince":0,"CountryCode":"NL","Region":"NH","City":"Amsterdam","Latitude":52.3961,"Longitude":4.85469},{"ID":"0x313Bb376fe28764F00fcb831B173e9F5Fe1B83Ba","CPU":1000,"GPU":1,"RAM":33646637875,"Online":true,"ConnectedSince":1730218553137,"CountryCode":"CA","Region":"NH","City":"Amsterdam","Latitude":52.3961,"Longitude":4.85469},